"stop_id","stop_code","stop_name","stop_desc","stop_lat","stop_lon","location_type","parent_station"
000008011088,"","Bad Wilsnack",,"52.960068000000","11.949902000000",0,900000215110
000008012679,"","Prösen",,"51.435061000000","13.488394000000",0,900000415465
000008012716,"","Rastow",,"53.458160000000","11.430867000000",0,900000550215
000008012713,"","Rangsdorf",,"52.293948000000","13.430886000000",0,900000245025
000008010205,"","Leipzig Hbf",,"51.346545000000","12.383331000000",0,900000550090
000008010327,"","Senftenberg",,"51.526943000000","14.003912000000",0,900000435000
000008010324,"","Schwerin Hbf",,"53.634659000000","11.407558000000",0,900000550112
000008010325,"","Schwerin-Görries",,"53.609369000000","11.384932000000",0,900000550211
000008010321,"","Schönhausen(Elbe)",,"52.590900000000","12.040742000000",0,900000550110
000008012393,"","Mühlanger",,"51.855713000000","12.748212000000",0,900000550319
000008011756,"","Großräschen",,"51.591487000000","14.014892000000",0,900000435339
000008011471,"","Eisenhüttenstadt",,"52.147977000000","14.658429000000",0,900000311307
000008011238,"","Borkheide",,"52.230776000000","12.854416000000",0,900000222030
000008012666,"","Potsdam Hbf",,"52.391524000000","13.066260000000",0,900000230999
000008012428,"","Netzeband",,"52.995555000000","12.628108000000",0,900000205022
000008010279,"","Potsdam Pirschheide",,"52.372667000000","13.011242000000",0,900000230002
000008010310,"","Salzwedel",,"52.858109000000","11.162029000000",0,900000550109
000008010318,"","Schönebeck(Elbe)",,"52.018501000000","11.733757000000",0,
000008010036,"","Berlin-Lichtenberg",,"52.509899000000","13.496917000000",0,900000160004
000008010035,"","Berlin-Karlshorst",,"52.480685000000","13.526808000000",0,900000162001
000008010031,"","Belzig",,"52.136223000000","12.593665000000",0,900000220143
000008012384,"","Moidentin",,"53.806075000000","11.481924000000",0,900000550209
000008012381,"","Möser",,"52.219128000000","11.784711000000",0,900000550259
000008011740,"","Großbeeren",,"52.350677000000","13.284777000000",0,900000245032
000008011749,"","Großenhain Cottb Bf",,"51.291633000000","13.523921000000",0,900000419052
000008011460,"","Eichstedt(Altm)",,"52.674851000000","11.854897000000",0,900000550070
000008013146,"","Treuenbrietzen Süd",,"52.080608000000","12.880922000000",0,900000220165
000008013145,"","Treuenbrietzen",,"52.091923000000","12.857916000000",0,900000220164
000008012656,"","Pönitz(Leipzig)",,"51.408538000000","12.514435000000",0,
000008012650,"","Plessa",,"51.470851000000","13.616850000000",0,900000416008
000008011188,"","Biesenthal",,"52.755416000000","13.674665000000",0,900000350137
000008012413,"","Nassenheide",,"52.816916000000","13.239204000000",0,900000200043
000008012418,"","Nechlin",,"53.440931000000","13.902882000000",0,900000340979
000008010268,"","Pasewalk",,"53.515336000000","13.988645000000",0,900000550103
000008010302,"","Roßlau(Elbe)",,"51.884611000000","12.237260000000",0,900000550108
000008010308,"","Ruhland",,"51.455318000000","13.870008000000",0,900000435061
000008012096,"","Kremmen",,"52.753887000000","13.039663000000",0,900000203452
000008011572,"","Fretzdorf",,"53.069304000000","12.539892000000",0,900000205092
000008011210,"","Blönsdorf",,"51.955408000000","12.895571000000",0,900000245018
000008011334,"","Dabendorf",,"52.237328000000","13.437291000000",0,900000245024
000008012760,"","Rheinsberg(Mark)",,"53.092860000000","12.899994000000",0,900000205524
000008010255,"","Berlin Ostbahnhof",,"52.510977000000","13.434571000000",0,900000120005
000008010250,"","Neustrelitz Hbf",,"53.359255000000","13.074597000000",0,900000550101
000008010376,"","Wiesenburg(Mark)",,"52.098567000000","12.432599000000",0,900000220152
000008010377,"","Potsdam Park Sanssouci",,"52.394109000000","13.014508000000",0,900000230007
000008010373,"","Werder(Havel)",,"52.392939000000","12.926193000000",0,900000220009
000008010378,"","Wilhelmshorst",,"52.331487000000","13.067441000000",0,900000220006
000008010018,"","Bad Kleinen",,"53.766971000000","11.466921000000",0,900000550054
000008010131,"","Görlitz",,"51.146769000000","14.979078000000",0,900000550013
000008012084,"","Kolkwitz Süd",,"51.746917000000","14.242185000000",0,900000445885
000008012083,"","Kolkwitz",,"51.757339000000","14.250943000000",0,900000445884
000008010139,"","Greifswald",,"54.093000000000","13.370412000000",0,900000500073
000008012089,"","Kraftwerk Finkenheerd",,"52.263344000000","14.575931000000",0,900000311233
000008011563,"","Frauenhain",,"51.384222000000","13.503637000000",0,900000550071
000008011322,"","Coswig(Anh)",,"51.887912000000","12.458080000000",0,900000550324
000008011815,"","Hammelspring",,"53.071081000000","13.437296000000",0,900000340353
000008012479,"","Neuzelle",,"52.098795000000","14.648860000000",0,900000310601
000008010246,"","Neuruppin West",,"52.926241000000","12.793884000000",0,900000205006
000008011818,"","Hangelsberg",,"52.399994000000","13.922204000000",0,900000310002
000008010248,"","Neustadt(Dosse)",,"52.852674000000","12.450668000000",0,900000205488
000008012233,"","Linda(Elster)",,"51.853058000000","13.085176000000",0,900000550091
000008012239,"","Lindow(Mark)",,"52.961584000000","12.981422000000",0,900000205400
000008010004,"","Angermünde",,"53.015225000000","13.996364000000",0,900000340004
000008010123,"","Genthin",,"52.403252000000","12.156568000000",0,900000550073
000008010120,"","Fürstenwalde(Spree)",,"52.366770000000","14.060032000000",0,900000310001
000008081688,"","Cottbus-Willmersdorf Nord",,"51.806736000000","14.376897000000",0,900000470307
000008010121,"","Geestgottberg",,"52.956329000000","11.736975000000",0,900000550072
000008012195,"","Leipzig-Thekla",,"51.371836000000","12.430545000000",0,900000550322
000008012190,"","Leipzig-Heiterblick",,"51.369244000000","12.459757000000",0,900000550321
000005100057,"","Szczecin Glowny",,"53.414434000000","14.550064000000",0,900000810013
000008011559,"","Frankfurt(Oder)-Rosengarten",,"52.337772000000","14.472631000000",0,900000360004
000008011271,"","Brück(Mark)",,"52.186793000000","12.758470000000",0,900000220141
000008011314,"","Chorin",,"52.903759000000","13.870239000000",0,900000350125
000008011311,"","Casekow",,"53.213616000000","14.208194000000",0,900000340061
000008011319,"","Coschen",,"52.020053000000","14.718310000000",0,900000311250
000008013381,"","Zeithain",,"51.330210000000","13.344551000000",0,900000550282
000008080170,"","Birkengrund",,"52.315387000000","13.271935000000",0,900000245030
000008011805,"","Halbe",,"52.108388000000","13.701861000000",0,900000260017
000008012469,"","Neupetershain",,"51.606322000000","14.161706000000",0,900000435347
000008010357,"","Guben",,"51.957202000000","14.706777000000",0,900000445593
000008010353,"","Luckau-Uckro",,"51.852123000000","13.607843000000",0,900000261596
000008010351,"","Torgau",,"51.563033000000","12.991135000000",0,900000550119
000008012226,"","Liebenthal(Prignitz)",,"53.151317000000","12.393600000000",0,900000205130
000008010077,"","Dessau Hbf",,"51.839867000000","12.234950000000",0,900000550065
000008010072,"","Coswig(Dresden)",,"51.122806000000","13.579421000000",0,900000550271
000008010073,"","Cottbus",,"51.750960000000","14.324157000000",0,900000470000
000008010079,"","Doberlug-Kirchhain",,"51.620573000000","13.564234000000",0,900000415112
000008010117,"","Templin Stadt",,"53.117337000000","13.509670000000",0,900000340027
000008010113,"","Frankfurt(Oder)",,"52.336165000000","14.546515000000",0,900000360000
000008089001,"","Berlin Alexanderplatz",,"52.521641000000","13.411006000000",0,900000100003
000008010111,"","Forst(Lausitz)",,"51.738880000000","14.637633000000",0,900000445010
000008011542,"","Finsterwalde(Niederlausitz)",,"51.636997000000","13.710381000000",0,900000415005
000008011540,"","Finkenheerd",,"52.248985000000","14.569884000000",0,900000311232
000008011541,"","Finkenkrug",,"52.569837000000","13.050966000000",0,900000210011
000008013418,"","Zörnigall",,"51.882934000000","12.731556000000",0,900000550131
000008012831,"","Sachsenhausen(Nordb)",,"52.772272000000","13.251863000000",0,900000200041
000005100145,"","Szczecin Gumience",,"53.399880000000","14.497055000000",0,900000810014
000008011269,"","Briesen(Mark)",,"52.346527000000","14.280639000000",0,900000310006
000008011308,"","Caputh-Geltow",,"52.350138000000","12.984486000000",0,900000220658
000008011694,"","Greifswald Süd",,"54.076114000000","13.397266000000",0,900000550218
000008080040,"","Albrechtshof",,"52.549366000000","13.129851000000",0,900000037168
000008011691,"","Gransee",,"53.001080000000","13.167118000000",0,900000203709
000008013093,"","Taucha(Leipzig)",,"51.379458000000","12.485727000000",0,900000550262
000008013090,"","Tantow",,"53.269273000000","14.347922000000",0,900000341224
000008012458,"","Neuhof(b Zossen)",,"52.139674000000","13.479587000000",0,900000245034
000008010347,"","Templin",,"53.112345000000","13.491483000000",0,900000340026
000008012215,"","Leuthen(Cottbus)",,"51.695078000000","14.256110000000",0,900000445986
000008010064,"","Britz",,"52.873265000000","13.821112000000",0,900000350124
000008010060,"","Brandenburg Hbf",,"52.400766000000","12.566242000000",0,900000275110
000008010069,"","Calau(Nl)",,"51.738122000000","13.979815000000",0,900000435459
000008010103,"","Falkenberg(Elster)",,"51.583621000000","13.247678000000",0,900000415345
000008010100,"","Elsterwerda-Biehla",,"51.472197000000","13.519613000000",0,900000415167
000008010109,"","Berlin-Schönefeld Flughafen",,"52.391641000000","13.513183000000",0,900000260005
000008089113,"","Berlin-Lichterfelde Ost",,"52.429481000000","13.327590000000",0,900000064301
000008013406,"","Ziltendorf",,"52.199511000000","14.616329000000",0,900000311631
000008013402,"","Zielitz",,"52.295865000000","11.679993000000",0,900000550128
000008011250,"","Brand(Niederlausitz)",,"52.029950000000","13.721496000000",0,900000260019
000008011258,"","Breddin",,"52.886046000000","12.224209000000",0,900000205250
000008011681,"","Grabow(Meckl)",,"53.282903000000","11.564206000000",0,900000550076
000008011016,"","Altdöbern",,"51.652783000000","14.009243000000",0,900000435209
000008011131,"","Beilrode",,"51.571005000000","13.064942000000",0,900000550267
000008013083,"","Tangerhütte",,"52.436593000000","11.811256000000",0,900000550117
000008012445,"","Teichland",,"51.818615000000","14.423808000000",0,900000446411
000008011867,"","Herzberg(Elster)",,"51.679448000000","13.202787000000",0,900000415683
000008012565,"","Ortrand",,"51.373394000000","13.764907000000",0,900000435801
000008012568,"","Osterburg",,"52.787503000000","11.760403000000",0,900000550102
000008011901,"","Berlin-Hohenschönhausen",,"52.566588000000","13.512771000000",0,900000152001
000008011909,"","Holzdorf(Elster)",,"51.780290000000","13.114134000000",0,900000550083
000008010053,"","Blankenfelde(Teltow-Fläming)",,"52.337214000000","13.415982000000",0,900000245027
000008012322,"","Medewitz(Mark)",,"52.060702000000","12.391829000000",0,900000222245
000008012321,"","Dorf Mecklenburg",,"53.842929000000","11.471336000000",0,900000550207
000008012329,"","Melchow",,"52.774872000000","13.694382000000",0,900000350126
000008010177,"","Hoyerswerda",,"51.432908000000","14.231024000000",0,900000439925
000008010175,"","Neuruppin Rheinsberger Tor",,"52.929568000000","12.810794000000",0,900000205005
000008010173,"","Holthusen",,"53.555829000000","11.364809000000",0,900000550213
000008010171,"","Hosena",,"51.454434000000","14.017050000000",0,900000435314
000008010179,"","Jatznick",,"53.603064000000","13.937665000000",0,900000550222
000008013477,"","Erkner",,"52.428556000000","13.751167000000",0,900000310004
000008013472,"","Brieselang",,"52.582553000000","13.001389000000",0,900000210326
000008013470,"","Bernau(b Berlin)",,"52.675837000000","13.592292000000",0,900000350160
000008012816,"","Rückersdorf",,"51.567360000000","13.574277000000",0,900000416094
000008013479,"","Falkensee",,"52.559773000000","13.089640000000",0,900000210010
000008012819,"","Rüdnitz",,"52.717701000000","13.636338000000",0,900000350158
000008012934,"","Schwante",,"52.734682000000","13.091734000000",0,900000204001
000008013238,"","Warnitz(Uckermark)",,"53.182033000000","13.876690000000",0,900000340056
000008011796,"","Hämerten",,"52.598704000000","11.971444000000",0,900000550081
000008013198,"","Vogelsang(Gransee)",,"53.036459000000","13.384843000000",0,900000203956
000008012552,"","Oehna",,"51.933053000000","13.048198000000",0,900000245019
000008010047,"","Biederitz",,"52.153092000000","11.717060000000",0,900000550257
000008012315,"","Marquardt",,"52.458880000000","12.971626000000",0,900000220012
000008010167,"","Herzberg(Mark)",,"52.905403000000","12.977951000000",0,900000205011
000008010161,"","Eilenburg Ost",,"51.463420000000","12.667768000000",0,900000550264
000008013467,"","Beelitz-Heilstätten",,"52.262347000000","12.926061000000",0,900000220005
000008013468,"","Beelitz Stadt",,"52.239399000000","12.966866000000",0,900000220938
000008012923,"","Schönwalde(Spreewald)",,"51.990797000000","13.777721000000",0,900000261871
000008011355,"","Demker",,"52.518181000000","11.854734000000",0,900000550064
000008013222,"","Walsleben",,"52.947797000000","12.678102000000",0,900000205023
000008011078,"","Bad Liebenwerda",,"51.518398000000","13.402936000000",0,900000415240
000008011116,"","Baruth(Mark)",,"52.057913000000","13.511964000000",0,900000245035
000008013185,"","Velten(Mark)",,"52.684828000000","13.172195000000",0,900000200004
000008013183,"","Vehlefanz",,"52.722335000000","13.114826000000",0,900000203671
000008011848,"","Heiligengrabe",,"53.149683000000","12.340539000000",0,900000205322
000008013188,"","Vetschau",,"51.789258000000","14.082910000000",0,900000435884
000008011960,"","Jessen(Elster)",,"51.792585000000","12.954955000000",0,
000008012549,"","Oderin",,"52.074920000000","13.726917000000",0,900000260018
000008011968,"","Altes Lager",,"52.017358000000","12.989046000000",0,900000245007
000008012264,"","Lübstorf",,"53.728885000000","11.411312000000",0,900000550210
000008012262,"","Lüblow(Meckl)",,"53.411042000000","11.464339000000",0,900000550216
000008012260,"","Luckenwalde",,"52.090590000000","13.160415000000",0,900000245016
000008010153,"","Güstrow",,"53.800534000000","12.172659000000",0,900000550237
000008010151,"","Güsen(b Genthin)",,"52.334318000000","11.976422000000",0,900000550078
000008012021,"","Klein Bünzow",,"53.923660000000","13.622435000000",0,900000550220
000008011344,"","Dannenwalde(Gransee)",,"53.079755000000","13.180797000000",0,900000203749
000008011340,"","Dahlewitz",,"52.326619000000","13.419575000000",0,900000245026
000008012918,"","Schönow(Angerm)",,"53.184945000000","14.153814000000",0,900000340025
000008013210,"","Walddrehna",,"51.772725000000","13.617247000000",0,900000261973
000008080710,"","Hohen Neuendorf West",,"52.672401000000","13.271344000000",0,900000200010
000008011100,"","Baitz",,"52.164153000000","12.685115000000",0,900000220142
000008011952,"","Jeber-Bergfrieden",,"51.984640000000","12.349695000000",0,900000550084
000008011959,"","Jesewitz(Leipzig)",,"51.419887000000","12.545011000000",0,900000550320
000008012257,"","Lubolz",,"51.962419000000","13.821354000000",0,900000261549
000008012371,"","Mockrehna",,"51.505610000000","12.819501000000",0,900000550266
000008012680,"","Prösen West",,"51.424962000000","13.470222000000",0,900000416053
000008012681,"","Prösen Ost",,"51.425297000000","13.500529000000",0,900000416052
000008012011,"","Kirchmöser",,"52.375236000000","12.422203000000",0,900000275719
000008012019,"","Klebitz",,"51.943977000000","12.841942000000",0,900000550087
000008013444,"","Dresden Mitte",,"51.056170000000","13.724113000000",0,900000550299
000008010296,"","Rathenow",,"52.599891000000","12.354789000000",0,900000210771
000008081586,"","Seegefeld",,"52.552483000000","13.116809000000",0,900000210180
000008010297,"","Riesa",,"51.309728000000","13.287402000000",0,900000419115
000008010292,"","Radebeul Ost",,"51.098467000000","13.679643000000",0,
000008010293,"","Radebeul West",,"51.107709000000","13.628771000000",0,900000550104
000008012903,"","Schönborn(Doberl)",,"51.602005000000","13.468041000000",0,900000415466
000008011173,"","Bestensee",,"52.242125000000","13.634926000000",0,900000260611
000008011179,"","Beutersitz",,"51.590355000000","13.360722000000",0,900000415357
000008011486,"","Elster(Elbe)",,"51.832333000000","12.827700000000",0,
000008011482,"","Elsholz",,"52.204050000000","12.954908000000",0,900000220305
000008011944,"","Jänschwalde",,"51.866274000000","14.500760000000",0,900000445750
000008011945,"","Jänschwalde Ost",,"51.877821000000","14.541242000000",0,900000445751
000008011940,"","Jacobsdorf(Mark)",,"52.332626000000","14.355033000000",0,900000310007
000008006552,"","Wolfsburg Hbf",,"52.429488000000","10.788192000000",0,900000550123
000008012006,"","Kerkwitz",,"51.909581000000","14.627572000000",0,900000445801
000008010287,"","Pritzwalk",,"53.145760000000","12.184524000000",0,900000215723
000008010284,"","Priemerburg",,"53.795977000000","12.223023000000",0,
000008010285,"","Priestewitz",,"51.250706000000","13.508586000000",0,900000550270
000008010282,"","Prenzlau",,"53.321605000000","13.866527000000",0,900000340050
000008010280,"","Potsdam Charlottenhof",,"52.392804000000","13.036499000000",0,900000230006
000008013275,"","Lutherstadt Wittenberg-Labetz",,"51.871458000000","12.694186000000",0,900000550328
000008013272,"","Wellmitz",,"52.064640000000","14.714893000000",0,900000311612
000008011630,"","Gerwisch",,"52.177269000000","11.741598000000",0,900000550258
000008011044,"","Anklam",,"53.856102000000","13.701833000000",0,900000550047
000008011042,"","Angern-Rogätz",,"52.338462000000","11.759529000000",0,900000550046
000008013313,"","Wilmersdorf(Angerm)",,"53.111631000000","13.892455000000",0,900000341270
000008011048,"","Annaburg",,"51.728678000000","13.032750000000",0,900000550323
000008080530,"","Potsdam Griebnitzsee",,"52.394440000000","13.128708000000",0,900000230003
000008012358,"","Miltzow",,"54.199259000000","13.201011000000",0,900000550217
000008010396,"","Züssow",,"53.973881000000","13.548192000000",0,900000550009
000008012967,"","Seehausen(Altm)",,"52.885776000000","11.743521000000",0,900000550113
000008010395,"","Zossen",,"52.218924000000","13.438570000000",0,900000245023
000008012968,"","Seehausen(Uckermark)",,"53.225059000000","13.880893000000",0,900000340055
000008010399,"","Fürstenberg(Havel)",,"53.186666000000","13.138972000000",0,900000203772
000008013305,"","Wiesenau",,"52.231321000000","14.583899000000",0,900000311620
000008011154,"","Berkenbrück",,"52.357194000000","14.165211000000",0,900000310005
000008011585,"","Friesack(Mark)",,"52.760711000000","12.587539000000",0,900000210456
000008012341,"","Cottbus-Merzdorf",,"51.768908000000","14.366663000000",0,900000470163
000008012061,"","Kodersdorf",,"51.259138000000","14.916429000000",0,900000550019
000008012957,"","Caputh Schwielowsee",,"52.340978000000","12.980365000000",0,900000220573
000008010384,"","Wittstock(Dosse)",,"53.160618000000","12.478918000000",0,900000205617
000008010382,"","Wittenberge",,"53.002230000000","11.763032000000",0,900000216026
000008010381,"","Wismar",,"53.896838000000","11.469440000000",0,900000500351
000008012951,"","Schwerin Süd",,"53.574275000000","11.376640000000",0,900000550212
000008013258,"","Weisen",,"53.025549000000","11.787510000000",0,900000216013
000008013376,"","Zeesen",,"52.264737000000","13.635055000000",0,900000260014
000008013377,"","Zehdenick(Mark)",,"52.979440000000","13.317626000000",0,900000203853
000008013371,"","Zahna",,"51.919967000000","12.781215000000",0,900000550126
000008011730,"","Groß Pankow",,"53.123017000000","12.047420000000",0,900000215350
000008013378,"","Zehdenick-Neuhof",,"53.005452000000","13.344460000000",0,900000203898
000008011149,"","Bergsdorf",,"52.936561000000","13.260797000000",0,900000203942
000008013137,"","Trebbin",,"52.217864000000","13.230383000000",0,900000245010
000008011294,"","Burg(Magdeburg)",,"52.274594000000","11.840789000000",0,900000550062
000008011290,"","Bülzig",,"51.894897000000","12.752713000000",0,900000550061
000008080190,"","Birkenwerder(b Berlin)",,"52.687976000000","13.288745000000",0,900000200008
000008012175,"","Lauta(Nl)",,"51.447158000000","14.093134000000",0,900000439905
000008012487,"","Niedergörsdorf",,"51.967929000000","12.978935000000",0,900000245017
000008012944,"","Schwedt(Oder)Mitte",,"53.068325000000","14.271582000000",0,900000341111
000008012942,"","Schwarzkollm",,"51.443183000000","14.133562000000",0,900000439916
000008012943,"","Schwedt(Oder)",,"53.063073000000","14.290508000000",0,900000341110
000008012941,"","Schwarzheide Ost",,"51.473646000000","13.890795000000",0,900000435802
000008010095,"","Eilenburg",,"51.452078000000","12.636932000000",0,900000550263
000008010093,"","Eberswalde Hbf",,"52.834024000000","13.797061000000",0,900000350127
000008010099,"","Elsterwerda",,"51.459681000000","13.516434000000",0,900000415502
000008013365,"","Wusterwitz",,"52.385112000000","12.374255000000",0,900000220249
000008011725,"","Groß Kreutz",,"52.410761000000","12.776330000000",0,900000220699
000008011723,"","Groß Kiesow",,"54.013720000000","13.480622000000",0,900000550219
000008013368,"","Zabeltitz",,"51.349831000000","13.515401000000",0,900000550125
000008080460,"","Genshagener Heide",,"52.327800000000","13.257593000000",0,900000245031
000008013124,"","Tiefenau",,"51.390688000000","13.413909000000",0,900000419153
000008013123,"","Thyrow",,"52.247232000000","13.259631000000",0,900000245037
000008011282,"","Buchholz(Zauche)",,"52.167577000000","12.922410000000",0,900000220306
000008012636,"","Pillgram",,"52.336901000000","14.398535000000",0,900000310008
000008012637,"","Pinnow(Uckermark)",,"53.065342000000","14.088740000000",0,900000340003
000008012040,"","Klieken",,"51.894526000000","12.371772000000",0,900000550326
000008010406,"","Berlin Zoologischer Garten",,"52.507279000000","13.331996000000",0,900000023201
000008010404,"","Berlin-Spandau",,"52.534474000000","13.197541000000",0,900000029101
000008010405,"","Berlin Wannsee",,"52.421059000000","13.179338000000",0,900000053301
000008010403,"","Berlin-Charlottenburg",,"52.504729000000","13.303524000000",0,900000024103
000008012169,"","Lauchhammer",,"51.474568000000","13.743247000000",0,900000435203
000008011894,"","Hohenleipisch",,"51.499235000000","13.574850000000",0,900000415736
000008010085,"","Dresden Hbf",,"51.040564000000","13.732032000000",0,900000550067
000008010089,"","Dresden-Neustadt",,"51.065764000000","13.740934000000",0,900000550066
000008013352,"","Wüstenfelde",,"54.230268000000","13.139604000000",0,900000550260
000008013350,"","Wünsdorf-Waldstadt",,"52.165558000000","13.468140000000",0,900000245022
000008011712,"","Gröditz(Riesa)",,"51.411383000000","13.439501000000",0,900000550280
000005100214,"","Kostrzyn",,"52.591599000000","14.644690000000",0,900000810003
000008013073,"","Sülstorf",,"53.513998000000","11.388046000000",0,900000550214
000008011430,"","Potsdam Medienstadt Babelsberg",,"52.382656000000","13.122283000000",0,900000230001
000008011438,"","Ducherow",,"53.766136000000","13.796017000000",0,900000550008
000008013118,"","Thießen",,"51.959330000000","12.297999000000",0,900000550118
000008012627,"","Petershagen(Uckerm)",,"53.239976000000","14.252353000000",0,900000340011
000008012625,"","Petersdorf(Meckl)",,"53.822137000000","11.477064000000",0,900000550208
000008012622,"","Perleberg",,"53.071259000000","11.852320000000",0,900000215696
000008012621,"","Peitz Ost",,"51.843982000000","14.449423000000",0,900000446103
000008010233,"","Michendorf",,"52.316347000000","13.030693000000",0,900000220003
000008010231,"","Meinsdorf",,"51.903193000000","12.256363000000",0,900000550097
000008010239,"","Nauen",,"52.612692000000","12.885562000000",0,900000210005
000008011667,"","Gollmitz(Niederlausitz)",,"51.703377000000","13.883769000000",0,900000435527
000008011665,"","Goldbeck(Osterburg)",,"52.716057000000","11.858149000000",0,900000550075
000008011662,"","Götz",,"52.411225000000","12.725989000000",0,900000220182
000008011668,"","Golßen(Niederlausitz)",,"51.974273000000","13.574768000000",0,900000261171
000008013344,"","Wolmirstedt",,"52.250253000000","11.635690000000",0,900000550124
000008013345,"","Woltersdorf/Nuthe-Urstromtal",,"52.117366000000","13.195274000000",0,900000245014
000008010193,"","Königs Wusterhausen",,"52.296639000000","13.631466000000",0,900000260001
000008011703,"","Griebo",,"51.880577000000","12.522978000000",0,900000550325
000008013348,"","Wülknitz",,"51.368986000000","13.389372000000",0,900000550281
000008013109,"","Groß Köris",,"52.159610000000","13.650810000000",0,900000260016
000008013492,"","Seddin",,"52.291839000000","12.985449000000",0,900000220004
000008011387,"","Doberschütz",,"51.492233000000","12.745784000000",0,900000550265
000008012614,"","Paulinenaue",,"52.675890000000","12.713267000000",0,900000210423
000008012611,"","Passow(Uckermark)",,"53.148702000000","14.101366000000",0,900000341007
000008012734,"","Rehfeld(Falkenberg)",,"51.579670000000","13.153392000000",0,900000416072
000008012733,"","Potsdam-Rehbrücke",,"52.358301000000","13.098238000000",0,900000220008
000008012145,"","Lampertswalde",,"51.308476000000","13.680377000000",0,900000550269
000008010226,"","Magdeburg-Neustadt",,"52.148662000000","11.641398000000",0,900000550255
000008010224,"","Magdeburg Hbf",,"52.130347000000","11.626898000000",0,900000550094
000008010222,"","Lutherstadt Wittenberg",,"51.867527000000","12.662011000000",0,900000550093
000008010220,"","Lübbenau(Spreewald)",,"51.862172000000","13.960898000000",0,900000435602
000008011994,"","Karstädt",,"53.160687000000","11.738615000000",0,900000215455
000008012295,"","Mahlwinkel",,"52.393733000000","11.788830000000",0,900000550095
000008011776,"","Grüneberg",,"52.867800000000","13.213017000000",0,900000203961
000008010182,"","Jüterbog",,"51.997513000000","13.054349000000",0,900000245002
000008010183,"","Sedlitz Ost",,"51.553104000000","14.055257000000",0,900000435001
000008011414,"","Drebkau",,"51.655084000000","14.223137000000",0,900000445360
000008011536,"","Ferdinandshof",,"53.660083000000","13.881913000000",0,900000550221
000008011537,"","Fermerswalde",,"51.642999000000","13.173593000000",0,900000415464
000008011533,"","Fangschleuse",,"52.406723000000","13.824929000000",0,900000310003
000008013487,"","Oranienburg",,"52.754453000000","13.249116000000",0,900000200005
000008013483,"","Hennigsdorf(Berlin)",,"52.638256000000","13.205457000000",0,900000200000
000008013480,"","Ferch-Lienewitz",,"52.303555000000","12.964071000000",0,900000220303
000008013481,"","Golm",,"52.409253000000","12.971724000000",0,900000220010
000008013489,"","Priort",,"52.516811000000","12.971475000000",0,900000210001
000008012605,"","Kunersdorf",,"51.768848000000","14.187505000000",0,900000445956
000008011093,"","Bärenklau",,"52.704043000000","13.143520000000",0,900000204003
000008011098,"","Bahnsdorf",,"51.582050000000","14.112908000000",0,900000435800
000008010216,"","Ludwigslust",,"53.334672000000","11.494492000000",0,900000550135
000008010217,"","Lübben(Spreewald)",,"51.939735000000","13.877181000000",0,900000261512
000008010214,"","Löwenberg(Mark)",,"52.896798000000","13.190051000000",0,900000203780
000008010215,"","Ludwigsfelde",,"52.298100000000","13.267320000000",0,900000245029
000008010334,"","Stendal",,"52.594719000000","11.854408000000",0,900000550114
000008010335,"","Stendal-Stadtsee",,"52.606836000000","11.836728000000",0,900000550115
000008081220,"","Saarmund",,"52.323557000000","13.139003000000",0,900000220002
000008012282,"","Lutherstadt Wittenb-Piesteritz",,"51.874182000000","12.576047000000",0,900000550329
000008010338,"","Stralsund Hbf",,"54.308629000000","13.077316000000",0,900000550000
000008012280,"","Lutherstadt Wittenb. Altstadt",,"51.863768000000","12.641429000000",0,900000550327
000008012281,"","Lutherstadt Wittenberg West",,"51.870577000000","12.608190000000",0,900000550261
000008012289,"","Magdeburg-Eichenweiler",,"52.166111000000","11.657933000000",0,900000550254
000008011641,"","Glöwen",,"52.903508000000","12.083930000000",0,900000215322
000008011766,"","Großwudicke",,"52.590500000000","12.231444000000",0,900000210314
000008011408,"","Dossow(Prign)",,"53.121210000000","12.520885000000",0,900000205090
000008011409,"","Drahnsdorf",,"51.915394000000","13.581252000000",0,900000260408
000008013160,"","Uebigau",,"51.585420000000","13.296525000000",0,900000415467
000008012897,"","Luckaitztal",,"51.685048000000","14.001706000000",0,900000435818
000008080260,"","Dallgow-Döberitz",,"52.543551000000","13.059035000000",0,900000210007
900000001103,"","Berlin, Wiebestr./Huttenstr.",,"52.528315000000","13.320255000000",1,
900000001151,"","Berlin, Reuchlinstr.",,"52.527900000000","13.323632000000",1,
900000001152,"","Berlin, Neues Ufer",,"52.529100000000","13.315976000000",1,
900000001154,"","Berlin, Ilsenburger Str.",,"52.525753000000","13.309834000000",1,
900000001155,"","Berlin, Goslarer Platz",,"52.525793000000","13.314256000000",1,
900000001202,"","Berlin, Am Nordhafen",,"52.538850000000","13.363610000000",1,
900000001203,"","Berlin, Döberitzer Str.",,"52.530028000000","13.368760000000",1,
900000001204,"","Berlin, Lehrter Str./Invalidenstr.",,"52.525764000000","13.365223000000",1,
900000002101,"","Berlin, Turmstr./Waldstr.",,"52.527104000000","13.330430000000",1,
900000002102,"","Berlin, Turmstr./Beusselstr.",,"52.527339000000","13.328743000000",1,
900000002151,"","Berlin, Wittstocker Str.",,"52.530856000000","13.328510000000",1,
900000002152,"","Berlin, Oldenburger Str.",,"52.526692000000","13.335958000000",1,
900000002201,"","U Birkenstr. (Berlin)",,"52.532229000000","13.341417000000",1,
900000002202,"","Berlin, Wilsnacker Str.",,"52.526363000000","13.351406000000",1,
900000002203,"","Berlin, Stendaler Str.",,"52.532458000000","13.350532000000",1,
900000002204,"","Berlin, Perleberger Brücke",,"52.535329000000","13.358033000000",1,
900000002206,"","Berlin, Turmstr./Rathenower Str.",,"52.526684000000","13.354805000000",1,
900000002207,"","Berlin, Stromstr.",,"52.529189000000","13.344006000000",1,
900000002254,"","Berlin, Birkenstr./Rathenower Str.",,"52.529654000000","13.352907000000",1,
900000002255,"","Berlin, Seydlitzstr.",,"52.527035000000","13.364158000000",1,
900000002256,"","Berlin, Poststadion",,"52.530281000000","13.362431000000",1,
900000002257,"","Berlin, Kruppstr.",,"52.533387000000","13.359639000000",1,
900000002258,"","Berlin, Havelberger Str.",,"52.531025000000","13.347673000000",1,
900000003101,"","U Hansaplatz (Berlin)",,"52.518111000000","13.342165000000",1,
900000003102,"","S Bellevue (Berlin)",,"52.519764000000","13.346930000000",1,
900000003103,"","S Tiergarten (Berlin)",,"52.514400000000","13.336469000000",1,
900000003104,"","U Turmstr. (Berlin)",,"52.525837000000","13.342401000000",1,
900000003107,"","Berlin, Alt-Moabit/Gotzkowskystr.",,"52.523929000000","13.329892000000",1,
900000003152,"","Berlin, Solinger Str.",,"52.520547000000","13.335728000000",1,
900000003155,"","Berlin, Rathaus Tiergarten",,"52.526062000000","13.339166000000",1,
900000003156,"","Berlin, Ottostr.",,"52.524681000000","13.334925000000",1,
900000003181,"","Berlin, Zinzendorfstr.",,"52.522221000000","13.331506000000",1,
900000003201,"","S+U Berlin Hauptbahnhof",,"52.525847000000","13.368924000000",1,
900000003202,"","Berlin, Kirchstr./Alt-Moabit",,"52.524542000000","13.349582000000",1,
900000003203,"","Berlin, Alt-Moabit/Rathenower Str.",,"52.523692000000","13.357070000000",1,
900000003204,"","Berlin, Kleiner Tiergarten",,"52.524990000000","13.345764000000",1,
900000003251,"","Berlin, Paulstr.",,"52.520069000000","13.355662000000",1,
900000003252,"","Berlin, Schloss Bellevue",,"52.516715000000","13.354203000000",1,
900000003253,"","Berlin, Haus der Kulturen der Welt",,"52.517598000000","13.363364000000",1,
900000003256,"","Berlin, Spenerstr.",,"52.524002000000","13.353543000000",1,
900000003257,"","Berlin, Claire-Waldoff-Promenade",,"52.523913000000","13.361350000000",1,
900000004101,"","Berlin, Großer Stern",,"52.515143000000","13.350177000000",1,
900000004104,"","Berlin, Reichstag/Bundestag",,"52.517716000000","13.376480000000",1,
900000004105,"","Berlin, Platz der Republik",,"52.517786000000","13.370442000000",1,
900000004151,"","Berlin, Nordische Botschaften/Adenauer-Stiftung",,"52.509593000000","13.351406000000",1,
900000004181,"","Berlin, Hertzallee",,"52.509231000000","13.332615000000",1,
900000005101,"","Berlin, Budapester Str.",,"52.506567000000","13.345672000000",1,
900000005103,"","Berlin, Schillstr.",,"52.503103000000","13.349926000000",1,
900000005105,"","Berlin, Lützowplatz",,"52.504900000000","13.351557000000",1,
900000005152,"","Berlin, Gedenkstätte Dt. Widerstand",,"52.505736000000","13.363292000000",1,
900000005154,"","Berlin, Köbisstr.",,"52.507165000000","13.356266000000",1,
900000005156,"","Berlin, Bayreuther Str.",,"52.504430000000","13.343958000000",1,
900000005201,"","U Kurfürstenstr. (Berlin)",,"52.499810000000","13.362814000000",1,
900000005202,"","Berlin, Lützowstr./Potsdamer Str.",,"52.503422000000","13.366003000000",1,
900000005205,"","Berlin, Potsdamer Brücke",,"52.505948000000","13.368306000000",1,
900000005206,"","Berlin, Philharmonie",,"52.510538000000","13.369288000000",1,
900000005252,"","U Mendelssohn-Bartholdy-Park (Berlin)",,"52.503806000000","13.374719000000",1,
900000005253,"","Berlin, Schöneberger Brücke",,"52.502333000000","13.377751000000",1,
900000005255,"","Berlin, Kulturforum",,"52.507564000000","13.369181000000",1,
900000006102,"","Berlin, Prinzenallee/Soldiner Str.",,"52.558656000000","13.386241000000",1,
900000006103,"","Berlin, Residenzstr./Reginhardstr.",,"52.560142000000","13.370523000000",1,
900000006104,"","Berlin, Soldiner Str./Koloniestr.",,"52.560083000000","13.381051000000",1,
900000006105,"","Berlin, Verlängerte Koloniestr.",,"52.567545000000","13.384648000000",1,
900000006153,"","Berlin, St.-Elisabeth-Kirchhof",,"52.560498000000","13.387759000000",1,
900000007102,"","S+U Gesundbrunnen Bhf (Berlin)",,"52.549036000000","13.388045000000",1,
900000007103,"","U Voltastr. (Berlin)",,"52.541930000000","13.393157000000",1,
900000007104,"","S Nordbahnhof (Berlin)",,"52.531870000000","13.388123000000",1,
900000007105,"","Berlin, Wolliner Str.",,"52.539770000000","13.401800000000",1,
900000007106,"","Berlin, Usedomer Str./Feldstr.",,"52.539233000000","13.387132000000",1,
900000007107,"","Berlin, Ruppiner Str.",,"52.539085000000","13.398978000000",1,
900000007110,"","U Bernauer Str. (Berlin)",,"52.537994000000","13.396231000000",1,
900000007111,"","Berlin, Lortzingstr.",,"52.544304000000","13.399173000000",1,
900000007112,"","Berlin, Gartenplatz",,"52.538422000000","13.384276000000",1,
900000007113,"","Berlin, Theodor-Heuss-Weg",,"52.534952000000","13.385862000000",1,
900000007114,"","Berlin, Gartenstr./Feldstr.",,"52.536522000000","13.383818000000",1,
900000007154,"","Berlin, Demminer Str.",,"52.542611000000","13.399429000000",1,
900000007155,"","Berlin, Gleimstr.",,"52.546042000000","13.398079000000",1,
900000007157,"","Berlin, Rügener Str.",,"52.545014000000","13.390793000000",1,
900000007159,"","Berlin, Humboldtsteg",,"52.547391000000","13.381993000000",1,
900000007160,"","Berlin, Grüntaler Str.",,"52.555358000000","13.390796000000",1,
900000007181,"","Berlin, Usedomer Str.",,"52.539916000000","13.389467000000",1,
900000008101,"","S Humboldthain (Berlin)",,"52.544742000000","13.378726000000",1,
900000008102,"","U Reinickendorfer Str. (Berlin)",,"52.539895000000","13.370393000000",1,
900000008103,"","Berlin, Nettelbeckplatz/S Wedding",,"52.544670000000","13.370188000000",1,
900000008106,"","Berlin, Brunnenplatz",,"52.550142000000","13.377996000000",1,
900000008151,"","Berlin, Gerichtstr./Hochstr.",,"52.543258000000","13.375717000000",1,
900000008153,"","Berlin, Wiesenstr.",,"52.547593000000","13.373891000000",1,
900000008158,"","Berlin, Schererstr.",,"52.548214000000","13.369164000000",1,
900000009101,"","U Amrumer Str. (Berlin)",,"52.542202000000","13.349534000000",1,
900000009102,"","U Leopoldplatz (Berlin)",,"52.546493000000","13.359395000000",1,
900000009103,"","U Seestr. (Berlin)",,"52.550470000000","13.351969000000",1,
900000009104,"","S+U Wedding (Berlin)",,"52.542732000000","13.366060000000",1,
900000009105,"","Berlin, Seestr./Amrumer Str.",,"52.546219000000","13.344055000000",1,
900000009151,"","Berlin, Gerichtstr.",,"52.544478000000","13.362664000000",1,
900000009152,"","Berlin, Rathaus Wedding",,"52.547847000000","13.356577000000",1,
900000009153,"","Berlin, Luxemburger Str.",,"52.544053000000","13.355060000000",1,
900000009154,"","Berlin, Samoastr.",,"52.541601000000","13.354144000000",1,
900000009155,"","Berlin, Kiautschoustr.",,"52.541067000000","13.357665000000",1,
900000009156,"","Berlin, Antwerpener Str.",,"52.548683000000","13.348701000000",1,
900000009201,"","U Nauener Platz (Berlin)",,"52.551524000000","13.367365000000",1,
900000009202,"","U Osloer Str. (Berlin)",,"52.556938000000","13.373284000000",1,
900000009203,"","U Pankstr. (Berlin)",,"52.552255000000","13.381837000000",1,
900000009204,"","Berlin, Osloer Str./Prinzenallee",,"52.555936000000","13.383663000000",1,
900000009206,"","Berlin, Drontheimer Str.",,"52.556529000000","13.377547000000",1,
900000009251,"","Berlin, Maxstr.",,"52.549415000000","13.363997000000",1,
900000009254,"","Berlin, Ritterlandweg/Soldiner Str.",,"52.560328000000","13.376929000000",1,
900000010201,"","Berlin, Sylter Str.",,"52.542327000000","13.336934000000",1,
900000010251,"","Berlin, Virchow-Klinikum",,"52.543493000000","13.338739000000",1,
900000011101,"","U Rehberge (Berlin)",,"52.556670000000","13.341013000000",1,
900000011102,"","U Afrikanische Str. (Berlin)",,"52.560862000000","13.333502000000",1,
900000011103,"","Berlin, Otawistr.",,"52.552681000000","13.336881000000",1,
900000011104,"","Berlin, Glasgower Str.",,"52.554915000000","13.345972000000",1,
900000011105,"","Berlin, Londoner Str.",,"52.563362000000","13.342898000000",1,
900000011151,"","Berlin, Türkenstr.",,"52.553506000000","13.346593000000",1,
900000011152,"","Berlin, Bristolstr.",,"52.558562000000","13.351614000000",1,
900000011153,"","Berlin, Septimerstr.",,"52.564254000000","13.338708000000",1,
900000011154,"","Berlin, Nachtigalplatz",,"52.556930000000","13.334651000000",1,
900000011155,"","Berlin, Transvaalstr.",,"52.550771000000","13.338887000000",1,
900000011201,"","Berlin, Louise-Schroeder-Platz",,"52.556982000000","13.365603000000",1,
900000011206,"","Berlin, Holländerstr./Aroser Allee",,"52.562088000000","13.353757000000",1,
900000011207,"","Berlin, Brienzer Str.",,"52.561949000000","13.359578000000",1,
900000011251,"","Berlin, Iranische Str.",,"52.555063000000","13.365956000000",1,
900000011252,"","Berlin, Osram-Höfe",,"52.553696000000","13.358291000000",1,
900000012101,"","S Anhalter Bahnhof (Berlin)",,"52.504499000000","13.382355000000",1,
900000012102,"","U Kochstr./Checkpoint Charlie (Berlin)",,"52.506673000000","13.390863000000",1,
900000012103,"","U Hallesches Tor (Berlin)",,"52.497774000000","13.391760000000",1,
900000012104,"","Berlin, Lindenstr./Oranienstr.",,"52.506962000000","13.398369000000",1,
900000012105,"","Berlin, Abgeordnetenhaus",,"52.506553000000","13.379666000000",1,
900000012151,"","Berlin, Willy-Brandt-Haus",,"52.500413000000","13.387440000000",1,
900000012152,"BVG","Berlin, Blücherstr.",,"52.496015000000","13.395386000000",1,
900000012153,"","Berlin, Wilhelmstr./Kochstr.",,"52.505890000000","13.386361000000",1,
900000012154,"","Berlin, Charlottenstr.",,"52.506885000000","13.393536000000",1,
900000012155,"","Berlin, Waldeckpark",,"52.506175000000","13.401835000000",1,
900000012156,"","Berlin, Alexandrinenstr.",,"52.505154000000","13.405322000000",1,
900000012157,"","Berlin, Jüdisches Museum",,"52.503543000000","13.395639000000",1,
900000012158,"","Berlin, Franz-Klühs-Str.",,"52.500417000000","13.394804000000",1,
900000012159,"","Berlin, Kommandantenstr.",,"52.507675000000","13.404180000000",1,
900000013101,"","U Moritzplatz (Berlin)",,"52.503739000000","13.410947000000",1,
900000013102,"","U Kottbusser Tor (Berlin)",,"52.499249000000","13.418167000000",1,
900000013103,"","U Prinzenstr. (Berlin)",,"52.498274000000","13.406531000000",1,
900000013104,"","Berlin, Prinzenstr./Ritterstr.",,"52.501647000000","13.409275000000",1,
900000013151,"","Berlin, Segitzdamm",,"52.500239000000","13.414340000000",1,
900000013152,"","Berlin, Oranienplatz",,"52.502244000000","13.415730000000",1,
900000014101,"","U Görlitzer Bahnhof (Berlin)",,"52.499035000000","13.428468000000",1,
900000014102,"","U Schlesisches Tor (Berlin)",,"52.500759000000","13.441926000000",1,
900000014103,"","Berlin, Adalbertstr./Oranienstr.",,"52.501285000000","13.419293000000",1,
900000014104,"","Berlin, Manteuffelstr./Köpenicker Str.",,"52.505634000000","13.432011000000",1,
900000014105,"","Berlin, Waldemarstr./Manteuffelstr.",,"52.501172000000","13.427919000000",1,
900000014107,"","Berlin, Bethaniendamm",,"52.507214000000","13.428439000000",1,
900000014151,"","Berlin, Waldemarstr./Adalbertstr.",,"52.502890000000","13.421819000000",1,
900000014152,"","Berlin, Mariannenplatz",,"52.502203000000","13.424418000000",1,
900000014153,"","Berlin, Wrangelstr.",,"52.503492000000","13.430012000000",1,
900000014154,"","Berlin, Eisenbahnstr.",,"52.504475000000","13.434934000000",1,
900000014155,"","Berlin, Falckensteinstr.",,"52.500052000000","13.443949000000",1,
900000014156,"","Berlin, Heinrichplatz",,"52.500271000000","13.422912000000",1,
900000015101,"","Berlin, Heckmannufer",,"52.497011000000","13.449298000000",1,
900000015103,"","Berlin, Glogauer Str.",,"52.493536000000","13.437272000000",1,
900000015104,"","Berlin, Ohlauer Str.",,"52.495569000000","13.430476000000",1,
900000015151,"","Berlin, Taborstr.",,"52.498214000000","13.447261000000",1,
900000015152,"","Berlin, Spreewaldplatz",,"52.497644000000","13.431280000000",1,
900000016101,"","U Gneisenaustr. (Berlin)",,"52.491252000000","13.395382000000",1,
900000016103,"","Berlin, Zossener Brücke",,"52.498427000000","13.395845000000",1,
900000016151,"","Berlin, Marheinekeplatz",,"52.489383000000","13.393821000000",1,
900000016152,"","Berlin, Jüterboger Str.",,"52.486248000000","13.394414000000",1,
900000016153,"","Berlin, Gneisenaustr./Baerwaldstr.",,"52.490386000000","13.400214000000",1,
900000016154,"","Berlin, Urbanstr./Baerwaldstr.",,"52.493910000000","13.403182000000",1,
900000016157,"","Berlin, Tempelherrenstr.",,"52.494335000000","13.400634000000",1,
900000016201,"","U Schönleinstr. (Berlin)",,"52.493179000000","13.422241000000",1,
900000016202,"","U Südstern (Berlin)",,"52.489219000000","13.407685000000",1,
900000016203,"","Berlin, Geibelstr.",,"52.493364000000","13.406787000000",1,
900000016204,"","Berlin, Körtestr.",,"52.492039000000","13.412340000000",1,
900000016252,"","Berlin, Graefestr.",,"52.490969000000","13.416148000000",1,
900000016254,"","Berlin, Wilmsstr.",,"52.495190000000","13.404342000000",1,
900000016255,"","Berlin, Kottbusser Brücke",,"52.495534000000","13.420698000000",1,
900000017100,"","Berlin, Obentrautstr.",,"52.495817000000","13.389342000000",1,
900000017101,"","U Mehringdamm (Berlin)",,"52.493575000000","13.388153000000",1,
900000017102,"","U Platz der Luftbrücke (Berlin)",,"52.484977000000","13.386351000000",1,
900000017103,"","U Gleisdreieck (Berlin)",,"52.499587000000","13.374293000000",1,
900000017104,"","U Möckernbrücke (Berlin)",,"52.498944000000","13.383256000000",1,
900000017105,"","Berlin, Yorckstr./Großbeerenstr.",,"52.493634000000","13.383826000000",1,
900000017106,"","Berlin, Platz der Luftbrücke",,"52.484919000000","13.385951000000",1,
900000017109,"","Berlin, Katzbachstr./Kreuzbergstr.",,"52.489310000000","13.377064000000",1,
900000017151,"","Berlin, Bergmannstr.",,"52.490071000000","13.386511000000",1,
900000017152,"","Berlin, Kreuzberg/Wasserfall",,"52.490174000000","13.382333000000",1,
900000017181,"BVG","Berlin, Columbiadamm/Platz der Luftbrücke",,"52.484359000000","13.390012000000",1,
900000018101,"","U Jakob-Kaiser-Platz (Berlin)",,"52.536985000000","13.293661000000",1,
900000018102,"","U Halemweg (Berlin)",,"52.536703000000","13.286578000000",1,
900000018103,"","Berlin, Weltlingerbrücke",,"52.539576000000","13.295064000000",1,
900000018105,"","Berlin, Hinckeldeybrücke",,"52.546621000000","13.299222000000",1,
900000018106,"","Berlin, Goerdelerdamm",,"52.534949000000","13.298170000000",1,
900000018151,"","Berlin, Habermannzeile",,"52.539671000000","13.291279000000",1,
900000018152,"","Berlin, Hofackerzeile",,"52.537105000000","13.290865000000",1,
900000018153,"","Berlin, Dahrendorfzeile",,"52.535148000000","13.289038000000",1,
900000019102,"","Berlin, Gloedenpfad",,"52.539408000000","13.302134000000",1,
900000019103,"","Berlin, Seestr./Beusselstr.",,"52.538250000000","13.326346000000",1,
900000019152,"","Berlin, Gedenkstätte Plötzensee",,"52.542100000000","13.324383000000",1,
900000019153,"","Berlin, Friedrich-Olbricht-Damm/Saatwinkler Damm",,"52.547552000000","13.312577000000",1,
900000019155,"","Berlin, Thaters Privatweg",,"52.539446000000","13.310109000000",1,
900000019156,"","Berlin, Kolonie Zukunft",,"52.539464000000","13.305231000000",1,
900000019158,"","Berlin, Berliner Großmarkt",,"52.536651000000","13.327005000000",1,
900000019202,"","Berlin, Reichweindamm",,"52.535653000000","13.300402000000",1,
900000019203,"","Berlin, Friedrich-Olbricht-Damm/Heckerdamm",,"52.541216000000","13.314967000000",1,
900000019204,"","U Mierendorffplatz (Berlin)",,"52.525978000000","13.305715000000",1,
900000019252,"","Berlin, Wirmerzeile",,"52.536903000000","13.302708000000",1,
900000019253,"","Berlin, Keplerstr.",,"52.528144000000","13.304866000000",1,
900000020101,"","Berlin, Friedhöfe Fürstenbrunner Weg",,"52.524469000000","13.279296000000",1,
900000020102,"","Berlin, Rohrdammbrücke",,"52.528499000000","13.269790000000",1,
900000020103,"","Berlin, Kirschenallee",,"52.520384000000","13.267228000000",1,
900000020105,"","Berlin, Machandelweg",,"52.524825000000","13.245063000000",1,
900000020151,"","Berlin, Fürstenbrunner Weg",,"52.520957000000","13.279930000000",1,
900000020152,"","Berlin, Kastanienallee",,"52.519513000000","13.272227000000",1,
900000020153,"","Berlin, DRK-Kliniken Westend",,"52.518712000000","13.276432000000",1,
900000020201,"","S+U Jungfernheide Bhf (Berlin)",,"52.530275000000","13.299064000000",1,
900000020204,"","Berlin, Sophie-Charlotten-Str.",,"52.518816000000","13.286792000000",1,
900000020206,"","Berlin, Pulsstr.",,"52.524320000000","13.285612000000",1,
900000020207,"","Berlin, Tegeler Weg/S Jungfernheide",,"52.529407000000","13.296238000000",1,
900000020208,"","Berlin, Osnabrücker Str.",,"52.526914000000","13.297388000000",1,
900000020252,"","Berlin, Schlossbrücke",,"52.522941000000","13.299908000000",1,
900000020271,"","Berlin, Mollwitzstr.",,"52.522169000000","13.285903000000",1,
900000020272,"","Berlin, Schlosspark-Klinik",,"52.522839000000","13.288737000000",1,
900000020281,"","Berlin, Goerdelersteg",,"52.532177000000","13.305899000000",1,
900000021102,"","Berlin, Marchbrücke",,"52.517150000000","13.323750000000",1,
900000021151,"","Berlin, Marchstr.",,"52.513495000000","13.322639000000",1,
900000021152,"","Berlin, Franklinstr.",,"52.522043000000","13.328141000000",1,
900000021181,"","Berlin, Helmholtzstr.",,"52.520827000000","13.321238000000",1,
900000022101,"","U Sophie-Charlotte-Platz (Berlin)",,"52.510970000000","13.297463000000",1,
900000022103,"","Berlin, Klausenerplatz",,"52.519125000000","13.291368000000",1,
900000022105,"","Berlin, Haubachstr.",,"52.515391000000","13.300864000000",1,
900000022106,"","Berlin, Bismarckstr./Kaiser-Friedrich-Str.",,"52.511284000000","13.301597000000",1,
900000022151,"","Berlin, Eosanderstr.",,"52.518268000000","13.304013000000",1,
900000022152,"","Berlin, Seelingstr.",,"52.516374000000","13.296444000000",1,
900000022153,"","Berlin, Zillestr.",,"52.513367000000","13.296900000000",1,
900000022171,"","Berlin, Schloss Charlottenburg",,"52.519255000000","13.295954000000",1,
900000022172,"","Berlin, Luisenplatz/Schloss Charlottenburg",,"52.519574000000","13.299632000000",1,
900000022201,"","U Deutsche Oper (Berlin)",,"52.511827000000","13.309420000000",1,
900000022202,"","U Richard-Wagner-Platz (Berlin)",,"52.517154000000","13.307221000000",1,
900000022203,"","Berlin, Dovebrücke",,"52.518438000000","13.320268000000",1,
900000022251,"","Berlin, Guerickestr.",,"52.517508000000","13.317441000000",1,
900000022252,"","Berlin, Warburgzeile",,"52.516211000000","13.310405000000",1,
900000023101,"","U Ernst-Reuter-Platz (Berlin)",,"52.511582000000","13.322581000000",1,
900000023104,"","Berlin, Otto-Suhr-Allee/Leibnizstr.",,"52.514638000000","13.315249000000",1,
900000023105,"","Berlin, Uhlandstr./Kantstr.",,"52.505624000000","13.325731000000",1,
900000023152,"","Berlin, Steinplatz",,"52.509043000000","13.326202000000",1,
900000023201,"","S+U Zoologischer Garten Bhf (Berlin)",,"52.506882000000","13.332927000000",1,
900000023202,"","U Augsburger Str. (Berlin)",,"52.500557000000","13.336771000000",1,
900000023203,"","U Kurfürstendamm (Berlin)",,"52.503763000000","13.331419000000",1,
900000023204,"","Berlin, Europa-Center",,"52.503930000000","13.337256000000",1,
900000023206,"","Berlin, Joachimstaler Str./Kantstr.",,"52.505351000000","13.330804000000",1,
900000023252,"","Berlin, Breitscheidplatz",,"52.505117000000","13.338824000000",1,
900000023301,"","U Uhlandstr. (Berlin)",,"52.502742000000","13.326233000000",1,
900000023302,"","U Adenauerplatz (Berlin)",,"52.500086000000","13.307348000000",1,
900000023304,"","Berlin, Olivaer Platz",,"52.500940000000","13.312999000000",1,
900000023305,"","Berlin, Lietzenburger Str./Uhlandstr.",,"52.500028000000","13.325460000000",1,
900000023351,"","Berlin, Bleibtreustr.",,"52.501732000000","13.320165000000",1,
900000023352,"","Berlin, Pariser Str.",,"52.497910000000","13.324424000000",1,
900000023354,"","Berlin, Rankeplatz",,"52.500445000000","13.330729000000",1,
900000024101,"","S Charlottenburg (Berlin)",,"52.505152000000","13.303477000000",1,
900000024102,"","S Westkreuz (Berlin)",,"52.501152000000","13.283036000000",1,
900000024104,"","Berlin, Amtsgerichtsplatz",,"52.506858000000","13.295427000000",1,
900000024106,"","S Messe Nord/ICC (Berlin)",,"52.506454000000","13.283043000000",1,
900000024108,"","Berlin, Kaiser-Friedrich-Str./Kantstr.",,"52.506781000000","13.302495000000",1,
900000024151,"","Berlin, Kuno-Fischer-Str.",,"52.506615000000","13.289779000000",1,
900000024201,"","U Bismarckstr. (Berlin)",,"52.511513000000","13.305286000000",1,
900000024202,"","U Wilmersdorfer Str. (Berlin)",,"52.505834000000","13.306885000000",1,
900000024203,"","S Savignyplatz (Berlin)",,"52.504971000000","13.319820000000",1,
900000024207,"","Berlin, Kantstr./Leibnizstr.",,"52.506294000000","13.313968000000",1,
900000024208,"","Berlin, Bismarckstr./Leibnizstr.",,"52.512127000000","13.314776000000",1,
900000024251,"","Berlin, Goethestr.",,"52.508825000000","13.314309000000",1,
900000024252,"","Berlin, Schlüterstr.",,"52.506074000000","13.317644000000",1,
900000024253,"","Berlin, Mommsenstr.",,"52.503333000000","13.313585000000",1,
900000025101,"","Berlin, Scholzplatz",,"52.506595000000","13.228287000000",1,
900000025151,"","Berlin, Ragniter Allee",,"52.507088000000","13.235297000000",1,
900000025152,"","Berlin, Mohrunger Allee",,"52.507938000000","13.249343000000",1,
900000025154,"","Berlin, Am Postfenn",,"52.500731000000","13.209539000000",1,
900000025155,"","Berlin, Schildhorn",,"52.494569000000","13.199504000000",1,
900000025202,"","U Ruhleben (Berlin)",,"52.525587000000","13.241902000000",1,
900000025203,"","U Olympia-Stadion (Berlin)",,"52.517048000000","13.250500000000",1,
900000025252,"","Berlin, Spandauer Damm/Reichsstr.",,"52.523703000000","13.250100000000",1,
900000025253,"","Berlin, Park Ruhwald",,"52.522554000000","13.255018000000",1,
900000025254,"","Berlin, Meiningenallee",,"52.521781000000","13.259298000000",1,
900000025255,"","Berlin, Wiesendammbrücke",,"52.527906000000","13.243588000000",1,
900000025301,"","Berlin, Flatowallee",,"52.507473000000","13.241523000000",1,
900000025321,"","S Olympiastadion (Berlin)",,"52.511135000000","13.241111000000",1,
900000025401,"","Berlin, Maikäferpfad",,"52.494568000000","13.266854000000",1,
900000025420,"","Berlin, Kühler Weg",,"52.496426000000","13.262872000000",1,
900000025422,"","Berlin, Waldschulallee/Harbigstr.",,"52.501197000000","13.262126000000",1,
900000025423,"","S Messe Süd (Berlin)",,"52.498771000000","13.270450000000",1,
900000025424,"","S Pichelsberg (Berlin)",,"52.510557000000","13.226748000000",1,
900000025451,"","Berlin, Alte Allee",,"52.491855000000","13.263419000000",1,
900000025452,"","Berlin, Kiefernweg",,"52.493397000000","13.265406000000",1,
900000025551,"","Berlin, Messegelände/Verwaltung",,"52.501236000000","13.275234000000",1,
900000025552,"","Berlin, Messegelände/ICC",,"52.504694000000","13.279605000000",1,
900000026101,"","U Neu-Westend (Berlin)",,"52.516409000000","13.259910000000",1,
900000026102,"","Berlin, Brixplatz",,"52.519693000000","13.256218000000",1,
900000026105,"","S Heerstr. (Berlin)",,"52.508273000000","13.258514000000",1,
900000026151,"","Berlin, Hessenallee",,"52.514299000000","13.263974000000",1,
900000026152,"","Berlin, Reichsstr./Kastanienallee",,"52.511478000000","13.268902000000",1,
900000026153,"","Berlin, Württembergallee",,"52.508943000000","13.265618000000",1,
900000026171,"","Berlin, Altenburger Allee",,"52.518587000000","13.257910000000",1,
900000026201,"","U Theodor-Heuss-Platz (Berlin)",,"52.509442000000","13.272673000000",1,
900000026202,"","U Kaiserdamm (Berlin)",,"52.509971000000","13.281967000000",1,
900000026204,"","Berlin, Messedamm/ZOB/ICC",,"52.506483000000","13.280393000000",1,
900000026205,"","Berlin, Knobelsdorffstr.",,"52.512826000000","13.281432000000",1,
900000026206,"","Berlin, Königin-Elisabeth-Str/Spandauer Damm",,"52.518347000000","13.280296000000",1,
900000026207,"","S Westend (Berlin)",,"52.518610000000","13.284237000000",1,
900000026251,"","Berlin, Haus des Rundfunks",,"52.507423000000","13.276591000000",1,
900000026271,"","Berlin, Lindenallee",,"52.510088000000","13.271071000000",1,
900000027201,"","Berlin, Johannesstift",,"52.566715000000","13.192624000000",1,
900000027202,"","Berlin, Klinkeplatz",,"52.555439000000","13.198584000000",1,
900000027204,"","Berlin, Hohenzollernring",,"52.555329000000","13.207649000000",1,
900000027205,"","Berlin, Aalemannufer",,"52.573261000000","13.212685000000",1,
900000027206,"","Berlin, Rauchstr.",,"52.561522000000","13.208439000000",1,
900000027207,"","Berlin, Cautiusstr.",,"52.562511000000","13.196875000000",1,
900000027251,"","Berlin, Mögeldorfer Weg",,"52.559836000000","13.197451000000",1,
900000027252,"","Berlin, Schülerbergstr.",,"52.551895000000","13.199756000000",1,
900000027253,"","Berlin, Reußstr.",,"52.560088000000","13.208075000000",1,
900000027254,"","Berlin, Wichernstr.",,"52.565341000000","13.209340000000",1,
900000027255,"","Berlin, Siedlung Hakenfelde",,"52.570851000000","13.212766000000",1,
900000027256,"","Berlin, Goltzstr./Rauchstr.",,"52.561116000000","13.212970000000",1,
900000027257,"","Berlin, Mertensstr.",,"52.564687000000","13.215280000000",1,
900000027258,"","Berlin, Rustweg",,"52.575446000000","13.211625000000",1,
900000027259,"","Berlin, Werderstr.",,"52.567762000000","13.210808000000",1,
900000027260,"","Berlin, Eschenweg",,"52.567651000000","13.210171000000",1,
900000027261,"BVG","Berlin, Hugo-Cassirer-Str.",,"52.559923000000","13.218835000000",1,
900000027262,"BVG","Berlin, Spandauer-See-Brücke",,"52.556334000000","13.219178000000",1,
900000027291,"","Berlin, Papenberger Weg",,"52.578272000000","13.210345000000",1,
900000027292,"","Berlin, Bürgerablage",,"52.584380000000","13.207194000000",1,
900000027301,"","Berlin, Am Kiesteich",,"52.551159000000","13.165502000000",1,
900000027302,"","Berlin, Falkenseer Chaussee/Stadtrandstr.",,"52.553441000000","13.153634000000",1,
900000027304,"","Berlin, Wasserwerk Spandau",,"52.556663000000","13.164188000000",1,
900000027305,"","Berlin, Freudstr./Goldkäferweg",,"52.556720000000","13.149149000000",1,
900000027306,"","Berlin, Waldkrankenhaus",,"52.562184000000","13.158376000000",1,
900000027307,"","Berlin, Griesingerstr./Stadtrandstr.",,"52.560174000000","13.157158000000",1,
900000027308,"","Berlin, Hochhausweg",,"52.550439000000","13.152818000000",1,
900000027309,"","Berlin, Spektefeld",,"52.548376000000","13.162465000000",1,
900000027351,"","Berlin, Paul-Gerhardt-Ring",,"52.548710000000","13.159555000000",1,
900000027352,"","Berlin, Im Spektefeld/Schulzentrum",,"52.549031000000","13.156216000000",1,
900000027353,"","Berlin, Glühwürmchenweg",,"52.556645000000","13.155090000000",1,
900000027354,"","Berlin, Wolburgsweg",,"52.555616000000","13.169247000000",1,
900000027355,"","Berlin, Frankenwaldstr.",,"52.554402000000","13.174744000000",1,
900000027356,"","Berlin, Friedhof In den Kisseln",,"52.553091000000","13.180017000000",1,
900000027358,"","Berlin, Sandwiesenweg",,"52.562876000000","13.165724000000",1,
900000027359,"","Berlin, Bötzow-Bahn",,"52.560818000000","13.172099000000",1,
900000027360,"","Berlin, Gliensteig",,"52.559490000000","13.177342000000",1,
900000027361,"","Berlin, Schwanter Weg",,"52.558136000000","13.182393000000",1,
900000027362,"","Berlin, Freudstr.",,"52.554148000000","13.149377000000",1,
900000027363,"","Berlin, Am Bogen",,"52.552306000000","13.159502000000",1,
900000027364,"","Berlin, Beerwinkel",,"52.551786000000","13.162054000000",1,
900000027365,"","Berlin, Spektebrücke",,"52.545851000000","13.161499000000",1,
900000027372,"BVG","Berlin, Radelandstr./Pflegeheim",,"52.563968000000","13.161579000000",1,
900000027401,"","Berlin, Falkenseer Chaussee/Zeppelinstr.",,"52.547562000000","13.184733000000",1,
900000027402,"","Berlin, Pionierstr./Zeppelinstr.",,"52.551508000000","13.185577000000",1,
900000027403,"","Berlin, Hohenzollernring/Falkenseer Chaussee",,"52.546422000000","13.190894000000",1,
900000027404,"","Berlin, Dyrotzer Str.",,"52.541617000000","13.168064000000",1,
900000027405,"","Berlin, Pausiner Str.",,"52.556152000000","13.188503000000",1,
900000027451,"","Berlin, Spekteweg",,"52.541994000000","13.183492000000",1,
900000027452,"","Berlin, Merziger Str.",,"52.544774000000","13.184068000000",1,
900000027453,"","Berlin, Westerwaldstr.",,"52.548770000000","13.178117000000",1,
900000027454,"","Berlin, Mülheimer Str.",,"52.549932000000","13.172413000000",1,
900000027455,"","Berlin, Falkenhagener Tor",,"52.550203000000","13.190259000000",1,
900000027456,"","Berlin, Zweibrücker Str.",,"52.546898000000","13.188253000000",1,
900000027457,"","Berlin, Viersener Str.",,"52.540109000000","13.175099000000",1,
900000027458,"","Berlin, Leuthingerweg",,"52.541834000000","13.164237000000",1,
900000028101,"","Berlin, Schützenstr.",,"52.549460000000","13.210289000000",1,
900000028151,"","Berlin, Kirchhofstr.",,"52.545286000000","13.208096000000",1,
900000028152,"","Berlin, Schäferstr.",,"52.551717000000","13.209319000000",1,
900000029101,"","S Spandau Bhf (Berlin)",,"52.534760000000","13.197652000000",1,
900000029102,"","Berlin, Zeppelinstr./Seegefelder Str.",,"52.538490000000","13.182440000000",1,
900000029103,"","Berlin, Falkenseer Platz",,"52.540989000000","13.201979000000",1,
900000029104,"","Berlin, Borkzeile",,"52.536632000000","13.190334000000",1,
900000029106,"","Berlin, Borchertweg",,"52.543650000000","13.193104000000",1,
900000029152,"","Berlin, Dallgower Str.",,"52.537656000000","13.186824000000",1,
900000029153,"","Berlin, Jenneweg",,"52.540944000000","13.194976000000",1,
900000029154,"","Berlin, Galenstr./Hohenzollernring",,"52.538717000000","13.197465000000",1,
900000029155,"","Berlin, Askanierring",,"52.545947000000","13.193387000000",1,
900000029156,"","Berlin, Flankenschanze",,"52.542839000000","13.198609000000",1,
900000029157,"","Berlin, Schulzenstr.",,"52.539084000000","13.178756000000",1,
900000029201,"","Berlin, Wröhmännerpark",,"52.542045000000","13.205958000000",1,
900000029202,"","Berlin, Moritzstr.",,"52.538603000000","13.200720000000",1,
900000029203,"","Berlin, Hügelschanze",,"52.548658000000","13.200832000000",1,
900000029204,"","Berlin, Windmühlenberg",,"52.548634000000","13.194345000000",1,
900000029251,"","Berlin, Kurze Str./Mittelstr.",,"52.546221000000","13.200073000000",1,
900000029252,"","Berlin, Predigergarten",,"52.545304000000","13.203689000000",1,
900000029301,"","U Altstadt Spandau (Berlin)",,"52.539161000000","13.206763000000",1,
900000029302,"","S+U Rathaus Spandau (Berlin)",,"52.535539000000","13.199766000000",1,
900000029303,"","Berlin, Breite Str./Markt",,"52.536036000000","13.204761000000",1,
900000030101,"","Berlin, Krematorium Ruhleben",,"52.527759000000","13.231795000000",1,
900000030102,"","Berlin, Polizeidirektion 2",,"52.528335000000","13.228245000000",1,
900000030151,"","Berlin, Güterbahnhof Ruhleben",,"52.528673000000","13.221653000000",1,
900000030152,"","Berlin, Heidereuterstr.",,"52.528727000000","13.207656000000",1,
900000030153,"","Berlin, Freiheit 16-43",,"52.530833000000","13.221418000000",1,
900000030154,"","Berlin, Pichelswerderstr.",,"52.531810000000","13.213783000000",1,
900000030155,"","Berlin, Werkring",,"52.528957000000","13.237576000000",1,
900000030156,"","Berlin, Tiefwerderweg",,"52.526089000000","13.207303000000",1,
900000030191,"","Berlin, Klärwerkstr.",,"52.529544000000","13.233024000000",1,
900000030202,"","S Stresow (Berlin)",,"52.532481000000","13.209675000000",1,
900000030251,"","Berlin, Stresowplatz",,"52.533859000000","13.206765000000",1,
900000030291,"BVG","Berlin, Ruhlebener Str./Grunewaldstr.",,"52.530562000000","13.204022000000",1,
900000031101,"","Berlin, Brunsbütteler Damm/Ruhlebener Str.",,"52.532957000000","13.198193000000",1,
900000031102,"","Berlin, Ziegelhof",,"52.529041000000","13.195345000000",1,
900000031103,"","Berlin, Päwesiner Weg",,"52.533827000000","13.176906000000",1,
900000031151,"","Berlin, Metzer Platz",,"52.525050000000","13.197167000000",1,
900000031152,"","Berlin, Elsflether Weg",,"52.533902000000","13.193650000000",1,
900000031153,"","Berlin, Grünhofer Weg",,"52.534316000000","13.188208000000",1,
900000031154,"","Berlin, Nauener Str.",,"52.534104000000","13.182455000000",1,
900000031155,"","Berlin, Egelpfuhlstr.",,"52.533580000000","13.170164000000",1,
900000031156,"","Berlin, Harburger Weg",,"52.533297000000","13.163289000000",1,
900000032101,"","Berlin, Am Omnibushof",,"52.517620000000","13.186240000000",1,
900000032102,"","Berlin, Heerstr./Wilhelmstr.",,"52.516704000000","13.179041000000",1,
900000032103,"","Berlin, Weinmeisterhornweg",,"52.511017000000","13.171583000000",1,
900000032104,"","Berlin, Melanchthonplatz",,"52.521664000000","13.188927000000",1,
900000032105,"","Berlin, Lutoner Str.",,"52.525302000000","13.177503000000",1,
900000032106,"","Berlin, Gatower Str./Heerstr.",,"52.515540000000","13.184843000000",1,
900000032152,"","Berlin, Földerichplatz",,"52.521053000000","13.193449000000",1,
900000032153,"","Berlin, Kolonie Hasenheide",,"52.523406000000","13.184598000000",1,
900000032155,"","Berlin, Rodensteinstr.",,"52.513735000000","13.174837000000",1,
900000032156,"","Berlin, Karolinenhöhe",,"52.508423000000","13.167581000000",1,
900000032157,"","Berlin, Seecktstr.",,"52.527759000000","13.187884000000",1,
900000032158,"","Berlin, Seeburger Str./Päwesiner Weg",,"52.526327000000","13.181877000000",1,
900000032201,"","Berlin, Gatower Str./Weinmeisterhornweg",,"52.509143000000","13.180164000000",1,
900000032251,"","Berlin, Sandheideweg",,"52.512444000000","13.182609000000",1,
900000032252,"","Berlin, Zur Haveldüne",,"52.503396000000","13.179716000000",1,
900000032253,"","Berlin, Biberburg",,"52.498144000000","13.180046000000",1,
900000032254,"","Berlin, Emil-Basdeck-Str.",,"52.493927000000","13.180301000000",1,
900000032255,"","Berlin, Pfirsichweg",,"52.490808000000","13.180321000000",1,
900000032256,"","Berlin, Gatow Kirche",,"52.486745000000","13.182214000000",1,
900000032301,"","Berlin, Teltower Str.",,"52.527019000000","13.216450000000",1,
900000032302,"","Berlin, Stößenseebrücke",,"52.508948000000","13.217129000000",1,
900000032351,"","Berlin, Freybrücke",,"52.512298000000","13.200635000000",1,
900000032352,"","Berlin, Pichelswerder",,"52.510652000000","13.208780000000",1,
900000032353,"","Berlin, Götelstr.",,"52.523744000000","13.202804000000",1,
900000032401,"","Berlin, Pichelsdorfer Str./Weißenburger Str.",,"52.522510000000","13.197746000000",1,
900000032402,"","Berlin, Alt-Pichelsdorf",,"52.513208000000","13.196948000000",1,
900000032405,"","Berlin, Metzer Str.",,"52.525461000000","13.193863000000",1,
900000032451,"","Berlin, Genfenbergstr.",,"52.517595000000","13.197627000000",1,
900000032452,"","Berlin, Jaczostr.",,"52.514155000000","13.191199000000",1,
900000032481,"","Berlin, Betckestr.",,"52.521009000000","13.197794000000",1,
900000033101,"","U Zitadelle (Berlin)",,"52.537522000000","13.217625000000",1,
900000033151,"","Berlin, Motorradwerk",,"52.537104000000","13.223361000000",1,
900000034101,"","U Paulsternstr. (Berlin)",,"52.538098000000","13.248593000000",1,
900000034102,"","U Haselhorst (Berlin)",,"52.539012000000","13.231757000000",1,
900000034103,"","Berlin, Paulsternstr./Gartenfelder Str.",,"52.544280000000","13.246203000000",1,
900000034104,"","Berlin, Lüdenscheider Weg",,"52.547120000000","13.236760000000",1,
900000034105,"","Berlin, Haselhorster Damm/Gartenfelder Str.",,"52.543125000000","13.240628000000",1,
900000034151,"","Berlin, Siedlung Haselhorst",,"52.541916000000","13.235877000000",1,
900000034153,"","Berlin, Burscheider Weg",,"52.544937000000","13.238320000000",1,
900000034155,"","Berlin, Kolonie Haselbusch",,"52.552753000000","13.230874000000",1,
900000035101,"","U Siemensdamm (Berlin)",,"52.537026000000","13.273323000000",1,
900000035103,"","Berlin, Saatwinkler Damm/Rohrdamm",,"52.547955000000","13.258942000000",1,
900000035104,"","Berlin, Quellweg",,"52.536762000000","13.267774000000",1,
900000035105,"","Berlin, Mäckeritzbrücke",,"52.548652000000","13.270269000000",1,
900000035106,"","Berlin, Gartenfeld",,"52.548316000000","13.247777000000",1,
900000035151,"","Berlin, Wernerwerkdamm",,"52.535485000000","13.266956000000",1,
900000035152,"","Berlin, Toeplerstr./Halemweg",,"52.538157000000","13.286695000000",1,
900000035153,"","Berlin, Schweiggerweg",,"52.538169000000","13.282303000000",1,
900000035154,"","Berlin, Goebelplatz",,"52.538119000000","13.280282000000",1,
900000035155,"","Berlin, Popitzweg",,"52.536876000000","13.278831000000",1,
900000035156,"","Berlin, Saatwinkler Damm 137",,"52.548461000000","13.262892000000",1,
900000036101,"","U Rohrdamm (Berlin)",,"52.536904000000","13.262870000000",1,
900000036151,"","Berlin, Schaltwerk",,"52.537565000000","13.256536000000",1,
900000036152,"","Berlin, Rohrdamm/Wasserwerk",,"52.531239000000","13.267349000000",1,
900000036153,"","Berlin, Straße am Schaltwerk",,"52.541636000000","13.262401000000",1,
900000036154,"","Berlin, Köttgenstr.",,"52.543951000000","13.261082000000",1,
900000036155,"","Berlin, Harriesstr.",,"52.546147000000","13.259922000000",1,
900000037101,"","Berlin, Magistratsweg/Brunsbütteler Damm",,"52.532982000000","13.157872000000",1,
900000037102,"","Berlin, Heidebergplan",,"52.540841000000","13.147275000000",1,
900000037103,"","Berlin, Brunsbütteler Damm/Nennhauser Damm",,"52.532631000000","13.143996000000",1,
900000037105,"","Berlin, Gartenstadt Staaken",,"52.539641000000","13.149587000000",1,
900000037106,"","Berlin, Klosterbuschweg",,"52.539172000000","13.157151000000",1,
900000037107,"","Berlin, Straße 603",,"52.544568000000","13.151190000000",1,
900000037108,"","Berlin, Eckenerweg",,"52.541699000000","13.150526000000",1,
900000037109,"","Berlin, Döberitzer Weg",,"52.528640000000","13.132943000000",1,
900000037111,"","Berlin, Schulstr.",,"52.530184000000","13.133130000000",1,
900000037122,"","Berlin, Brandwerder",,"52.535480000000","13.156965000000",1,
900000037130,"","Berlin, Möthlower Str.",,"52.547937000000","13.137421000000",1,
900000037132,"","Berlin, Ungewitterweg",,"52.542757000000","13.143330000000",1,
900000037133,"","Berlin, Seegefelder Weg",,"52.546303000000","13.143776000000",1,
900000037151,"","Berlin, Louise-Schroeder-Siedlung",,"52.532904000000","13.152963000000",1,
900000037152,"","Berlin, Zweiwinkelweg",,"52.532823000000","13.148378000000",1,
900000037154,"","Berlin, Seegefelder Weg/Klosterbuschweg",,"52.543083000000","13.157844000000",1,
900000037155,"","Berlin, Isenburger Weg",,"52.540715000000","13.135126000000",1,
900000037157,"","Berlin, Zeestower Weg",,"52.545644000000","13.136625000000",1,
900000037158,"","Berlin, Oberdorfer Steig",,"52.541653000000","13.131967000000",1,
900000037159,"","Berlin, Hauptstr.",,"52.530337000000","13.140532000000",1,
900000037166,"","Berlin, Melonensteig",,"52.543279000000","13.135797000000",1,
900000037167,"","Berlin, Ferbitzer Weg",,"52.544369000000","13.128912000000",1,
900000037168,"","Berlin, Albrechtshof Bhf",,"52.549334000000","13.127624000000",1,
900000037169,"","Berlin, Jänickendorfer Weg",,"52.548385000000","13.129103000000",1,
900000037171,"","Berlin, Am Kurzen Weg",,"52.539587000000","13.145901000000",1,
900000037191,"","Berlin, Finkenkruger Weg",,"52.539611000000","13.143396000000",1,
900000037201,"","Berlin, Rudolf-Wissell-Siedlung",,"52.523524000000","13.161838000000",1,
900000037202,"","Berlin, Sandstr.",,"52.518546000000","13.170000000000",1,
900000037203,"","Berlin, Hahneberg",,"52.523475000000","13.146631000000",1,
900000037204,"","Berlin, Reimerweg",,"52.521580000000","13.155775000000",1,
900000037205,"","Berlin, Leubnitzer Weg",,"52.522966000000","13.172873000000",1,
900000037207,"","Berlin, Heerstr./Magistratsweg",,"52.520997000000","13.162964000000",1,
900000037209,"","Berlin, Buschower Weg",,"52.526507000000","13.132299000000",1,
900000037211,"","Berlin, Heerstr./Nennhauser Damm",,"52.528949000000","13.123122000000",1,
900000037251,"","Berlin, Baluschekweg",,"52.523983000000","13.166358000000",1,
900000037252,"","Berlin, Springerzeile",,"52.527639000000","13.160163000000",1,
900000037254,"","Berlin, Obstallee",,"52.519810000000","13.173069000000",1,
900000037255,"","Berlin, Heerstr. 438-446",,"52.520571000000","13.160581000000",1,
900000038103,"","Berlin, Landschaftsfriedhof Gatow",,"52.498332000000","13.152853000000",1,
900000038104,"","Berlin, Alt-Gatow",,"52.483411000000","13.183067000000",1,
900000038151,"BVG","Berlin, Annenweg",,"52.481455000000","13.173755000000",1,
900000038152,"","Berlin, Gatower Heide",,"52.482281000000","13.151903000000",1,
900000038201,"","Berlin, Breitehornweg",,"52.470407000000","13.169473000000",1,
900000038202,"","Berlin, Habichtswald",,"52.479604000000","13.142531000000",1,
900000038203,"","Berlin, Waldschluchtpfad",,"52.469650000000","13.175133000000",1,
900000038251,"","Berlin, Helleberge",,"52.474240000000","13.174520000000",1,
900000038252,"","Berlin, Am Graben",,"52.478902000000","13.179251000000",1,
900000038254,"","Berlin, Weg nach Breitehorn",,"52.468011000000","13.166408000000",1,
900000038255,"","Berlin, General-Steinhoff-Kaserne",,"52.464524000000","13.161857000000",1,
900000038256,"","Berlin, Außenweg",,"52.485180000000","13.135535000000",1,
900000039101,"","Berlin, Gutsstr.",,"52.474939000000","13.120966000000",1,
900000039102,"BVG","Berlin, Alt-Kladow",,"52.454315000000","13.144273000000",1,
900000039103,"","Berlin, Hottengrund",,"52.445524000000","13.125764000000",1,
900000039105,"","Berlin, Lanzendorfer Weg",,"52.448766000000","13.114564000000",1,
900000039106,"","Berlin, Parnemannweg",,"52.452260000000","13.138351000000",1,
900000039107,"","Berlin, Krampnitzer Weg/Selbitzer Str.",,"52.453270000000","13.122033000000",1,
900000039108,"","Berlin, Waldallee",,"52.465696000000","13.128971000000",1,
900000039109,"","Berlin, Krankenhaus Havelhöhe",,"52.462676000000","13.158718000000",1,
900000039151,"","Berlin, Grimmelshausenstr.",,"52.452946000000","13.128689000000",1,
900000039152,"","Berlin, Pottensteiner Weg",,"52.450463000000","13.118579000000",1,
900000039153,"","Berlin, Neukladower Allee",,"52.459811000000","13.153935000000",1,
900000039154,"","Berlin, Finnenhaus-Siedlung",,"52.456616000000","13.148011000000",1,
900000039155,"","Berlin, Schallweg",,"52.456056000000","13.140788000000",1,
900000039156,"","Berlin, Schwabinger Weg",,"52.458221000000","13.138137000000",1,
900000039157,"","Berlin, Gredinger Str.",,"52.461643000000","13.133723000000",1,
900000039158,"","Berlin, Seekorso",,"52.467904000000","13.126438000000",1,
900000039159,"","Berlin, Kurpromenade",,"52.470771000000","13.123568000000",1,
900000039160,"","Berlin, Gößweinsteiner Gang",,"52.450802000000","13.132076000000",1,
900000039161,"","Berlin, Temmeweg",,"52.449259000000","13.129933000000",1,
900000039162,"","Berlin, Kaserne Hottengrund",,"52.447287000000","13.127471000000",1,
900000039163,"","Berlin, Benfeyweg",,"52.457422000000","13.123905000000",1,
900000039164,"","Berlin, Zingerleweg",,"52.460433000000","13.126747000000",1,
900000039165,"","Berlin, Katzwanger Steig",,"52.463842000000","13.129247000000",1,
900000040101,"","S Halensee (Berlin)",,"52.496698000000","13.290151000000",1,
900000040102,"","Berlin, Joachim-Friedrich-Str./Westfälische Str.",,"52.495888000000","13.295988000000",1,
900000040104,"","Berlin, Kurfürstendamm/Joachim-Friedrich-Str.",,"52.498041000000","13.296346000000",1,
900000040151,"BVG","Berlin, Lehniner Platz/Schaubühne",,"52.498925000000","13.301806000000",1,
900000040152,"","Berlin, Seesener Str.",,"52.492673000000","13.296571000000",1,
900000040153,"","Berlin, Grieser Platz",,"52.490887000000","13.293044000000",1,
900000041101,"","U Fehrbelliner Platz (Berlin)",,"52.490201000000","13.314519000000",1,
900000041102,"","U Blissestr. (Berlin)",,"52.486347000000","13.321618000000",1,
900000041151,"","Berlin, Konstanzer Str.",,"52.491498000000","13.311024000000",1,
900000041152,"","Berlin, Hoffmann-von-Fallersleben-Platz",,"52.488476000000","13.307990000000",1,
900000041154,"","Berlin, Mansfelder Str./Barstr.",,"52.490713000000","13.313769000000",1,
900000041201,"","U Konstanzer Str. (Berlin)",,"52.493567000000","13.310084000000",1,
900000041251,"","Berlin, Eisenzahnstr.",,"52.493453000000","13.304898000000",1,
900000041252,"","Berlin, Düsseldorfer Str.",,"52.496974000000","13.311629000000",1,
900000041281,"","Berlin, Hochmeisterplatz",,"52.494651000000","13.301385000000",1,
900000042101,"","U Spichernstr. (Berlin)",,"52.496582000000","13.330613000000",1,
900000043101,"","U Hohenzollernplatz (Berlin)",,"52.493833000000","13.324051000000",1,
900000043103,"","Berlin, Güntzelstr./Uhlandstr.",,"52.491542000000","13.323246000000",1,
900000043151,"","Berlin, Fechnerstr.",,"52.489551000000","13.322877000000",1,
900000043171,"","U Blissestr./Fechnerstr. (Berlin)",,"52.486328000000","13.323384000000",1,
900000043201,"","U Güntzelstr. (Berlin)",,"52.491992000000","13.331210000000",1,
900000043252,"","Berlin, Landhausstr.",,"52.486845000000","13.328523000000",1,
900000044101,"","S Hohenzollerndamm (Berlin)",,"52.488314000000","13.300712000000",1,
900000044102,"","Berlin, Am Volkspark",,"52.483665000000","13.320360000000",1,
900000044104,"","Berlin, Detmolder Str./Blissestr.",,"52.479118000000","13.320326000000",1,
900000044151,"","Berlin, Brabanter Platz",,"52.481828000000","13.315889000000",1,
900000044171,"","Berlin, Friedrichsruher Str.",,"52.487189000000","13.299192000000",1,
900000044201,"","U Berliner Str. (Berlin)",,"52.487047000000","13.331355000000",1,
900000044202,"","S+U Bundesplatz (Berlin)",,"52.477366000000","13.329149000000",1,
900000044204,"","Berlin, Kufsteiner Str.",,"52.485819000000","13.336618000000",1,
900000044205,"","Berlin, Birger-Forell-Platz",,"52.481805000000","13.320363000000",1,
900000044251,"","Berlin, Wexstr.",,"52.478673000000","13.332795000000",1,
900000045101,"","U Rüdesheimer Platz (Berlin)",,"52.472462000000","13.314387000000",1,
900000045102,"","S+U Heidelberger Platz (Berlin)",,"52.479446000000","13.311843000000",1,
900000045103,"","Berlin, Wiesbadener Str./Laubacher Str.",,"52.471572000000","13.319217000000",1,
900000045104,"","Berlin, Zoppoter Str.",,"52.473320000000","13.299372000000",1,
900000045151,"","Berlin, Hanauer Str.",,"52.477016000000","13.320263000000",1,
900000045152,"","Berlin, Deidesheimer Str.",,"52.474318000000","13.320374000000",1,
900000045153,"","Berlin, Laubenheimer Str.",,"52.469609000000","13.315539000000",1,
900000045154,"","Berlin, Görresstr.",,"52.475670000000","13.324874000000",1,
900000045155,"","Berlin, Südwestkorso/Taunusstr.",,"52.473934000000","13.322570000000",1,
900000045156,"","Berlin, Forckenbeckstr./Sportanlagen",,"52.478309000000","13.309013000000",1,
900000045157,"","Berlin, Rudolf-Mosse-Platz",,"52.475394000000","13.303628000000",1,
900000045158,"","Berlin, Kirchstr.",,"52.474154000000","13.294613000000",1,
900000045159,"","Berlin, Sodener Str.",,"52.472713000000","13.304682000000",1,
900000045160,"","Berlin, Binger Str.",,"52.472371000000","13.309572000000",1,
900000046101,"","Berlin, Salzbrunner Str.",,"52.484238000000","13.293776000000",1,
900000046151,"","Berlin, Forckenbeckstr.",,"52.481937000000","13.289690000000",1,
900000046152,"","Berlin, Cunostr.",,"52.485373000000","13.295973000000",1,
900000046203,"","Berlin, Elsterplatz",,"52.479647000000","13.285354000000",1,
900000046251,"","Berlin, Rathaus Schmargendorf",,"52.477391000000","13.287849000000",1,
900000046301,"","Berlin, Berkaer Str./Breite Str.",,"52.475330000000","13.290644000000",1,
900000046351,"","Berlin, Platz am Wilden Eber",,"52.471233000000","13.289656000000",1,
900000046352,"","Berlin, Sulzaer Str.",,"52.475973000000","13.285998000000",1,
900000046353,"","Berlin, Bernadottestr.",,"52.467669000000","13.289331000000",1,
900000047151,"","Berlin, Havelweg",,"52.491530000000","13.204074000000",1,
900000047152,"","Berlin, Waldhaus",,"52.480409000000","13.197367000000",1,
900000047153,"","Berlin, Grunewaldturm",,"52.478598000000","13.197848000000",1,
900000047154,"","Berlin, Lindwerder",,"52.467188000000","13.196552000000",1,
900000047155,"","Berlin, Havelchaussee",,"52.459789000000","13.190613000000",1,
900000047156,"","Berlin, Große Steinlanke",,"52.454773000000","13.189801000000",1,
900000048101,"","S Grunewald (Berlin)",,"52.488680000000","13.261944000000",1,
900000048103,"","Berlin, Rathenauplatz",,"52.495921000000","13.287228000000",1,
900000048104,"","Berlin, Herthastr.",,"52.486470000000","13.284405000000",1,
900000048107,"","Berlin, Hagenplatz",,"52.483317000000","13.265912000000",1,
900000048109,"","Berlin, Roseneck",,"52.476223000000","13.282016000000",1,
900000048110,"","Berlin, Erdener Str.",,"52.490211000000","13.275916000000",1,
900000048151,"","Berlin, Trabener Steg",,"52.497558000000","13.282931000000",1,
900000048152,"","Berlin, Bismarckplatz",,"52.491937000000","13.284947000000",1,
900000048153,"","Berlin, Lynarstr.",,"52.489550000000","13.284671000000",1,
900000048154,"","Berlin, Elgersburger Str.",,"52.482889000000","13.285625000000",1,
900000048155,"","Berlin, Hasensprung",,"52.486803000000","13.271871000000",1,
900000048156,"","Berlin, Herbertstr.",,"52.491783000000","13.280128000000",1,
900000048157,"","Berlin, Joseph-Joachim-Platz",,"52.482119000000","13.281172000000",1,
900000048159,"","Berlin, Richard-Strauss-Str.",,"52.479949000000","13.271585000000",1,
900000048160,"","Berlin, Hubertusbader Str.",,"52.478405000000","13.275603000000",1,
900000048161,"","Berlin, Delbrückstr.",,"52.484178000000","13.282792000000",1,
900000049101,"","Berlin, Neuruppiner Str.",,"52.421144000000","13.226659000000",1,
900000049103,"","Berlin, Behring-Krankenhaus",,"52.423838000000","13.251681000000",1,
900000049104,"","Berlin, Fürstenstr.",,"52.433757000000","13.242640000000",1,
900000049105,"","Berlin, Mittelstr.",,"52.434738000000","13.249343000000",1,
900000049150,"","Berlin, Fercher Str.",,"52.423302000000","13.234319000000",1,
900000049151,"","Berlin, Wolzogenstr.",,"52.432284000000","13.235703000000",1,
900000049154,"","Berlin, Ludwigsfelder Str.",,"52.424326000000","13.239493000000",1,
900000049155,"","Berlin, Loebellstr.",,"52.426150000000","13.245572000000",1,
900000049156,"","Berlin, Radtkestr.",,"52.426924000000","13.248005000000",1,
900000049157,"","Berlin, Camphausenstr.",,"52.427839000000","13.250751000000",1,
900000049201,"","S Zehlendorf (Berlin)",,"52.431209000000","13.259227000000",1,
900000049202,"","S Sundgauer Str. (Berlin)",,"52.436187000000","13.273501000000",1,
900000049203,"","Berlin, Bolchener Str.",,"52.433862000000","13.275742000000",1,
900000049205,"","Berlin, Schönower Park",,"52.426928000000","13.260340000000",1,
900000049206,"","Berlin, Jänickestr.",,"52.427228000000","13.271713000000",1,
900000049207,"","Berlin, Stubenrauchstr.",,"52.430606000000","13.265988000000",1,
900000049208,"","Berlin, Dahlemer Weg",,"52.432142000000","13.278633000000",1,
900000049241,"","Berlin, Zehlendorf Eiche",,"52.435078000000","13.260455000000",1,
900000049251,"","Berlin, Machnower Str./Berlepschstr.",,"52.429706000000","13.256891000000",1,
900000049252,"","Berlin, Schrockstr.",,"52.427605000000","13.254934000000",1,
900000049253,"","Berlin, Machnower Str.",,"52.430433000000","13.259484000000",1,
900000049254,"","Berlin, Schweizerhofpark",,"52.424987000000","13.262005000000",1,
900000049256,"","Berlin, Knesebeckstr.",,"52.428898000000","13.267689000000",1,
900000049257,"","Berlin, Mürwiker Str.",,"52.426382000000","13.276849000000",1,
900000049258,"","Berlin, Rathaus Zehlendorf",,"52.433476000000","13.258130000000",1,
900000049301,"","Berlin, Beeskowdamm",,"52.409652000000","13.267298000000",1,
900000049302,"","Berlin, Sachtlebenstr.",,"52.409179000000","13.251736000000",1,
900000049303,"","Berlin, Am Birkenknick",,"52.415173000000","13.266148000000",1,
900000049304,"","Berlin, Ludwigsfelder Str./Sachtlebenstr.",,"52.419327000000","13.249113000000",1,
900000049305,"","Berlin, Leo-Baeck-Str.",,"52.422065000000","13.263773000000",1,
900000049351,"","Berlin, Gutzmannstr.",,"52.420954000000","13.249968000000",1,
900000049352,"","Berlin, Nieritzweg",,"52.415295000000","13.251307000000",1,
900000049353,"","Berlin, Windsteiner Weg",,"52.411704000000","13.251779000000",1,
900000049354,"","Berlin, Laehrstr.",,"52.419385000000","13.264785000000",1,
900000049356,"","Berlin, Am Rehwechsel",,"52.412109000000","13.266928000000",1,
900000049371,"","Berlin, Türksteinweg",,"52.417302000000","13.265445000000",1,
900000049372,"","Berlin, Andréezeile",,"52.410338000000","13.266113000000",1,
900000049374,"","Berlin, Alt-Schönow",,"52.407023000000","13.267737000000",1,
900000050202,"","Berlin, Onkel-Tom-Str.",,"52.450025000000","13.251085000000",1,
900000050203,"","Berlin, Scharfestr.",,"52.438276000000","13.262311000000",1,
900000050206,"","Berlin, Altkanzlerstr.",,"52.446666000000","13.244857000000",1,
900000050251,"","Berlin, Holländische Mühle",,"52.439999000000","13.276743000000",1,
900000050253,"","Berlin, Kleinaustr.",,"52.435360000000","13.264360000000",1,
900000050254,"","Berlin, Leichhardtstr.",,"52.445059000000","13.267579000000",1,
900000050255,"","Berlin, Schützallee",,"52.442187000000","13.265453000000",1,
900000050256,"","Berlin, Schützallee/Riemeisterstr.",,"52.441724000000","13.261689000000",1,
900000050257,"","Berlin, Sophie-Charlotte-Str.",,"52.444504000000","13.260651000000",1,
900000050258,"","Berlin, Am Fischtal",,"52.446505000000","13.258355000000",1,
900000050259,"","Berlin, Im Gestell",,"52.448234000000","13.256345000000",1,
900000050261,"","Berlin, Siebenendenweg",,"52.448328000000","13.247522000000",1,
900000050281,"","Berlin, Winfriedstr.",,"52.437877000000","13.270197000000",1,
900000050282,"","U Onkel Toms Hütte (Berlin)",,"52.450146000000","13.254016000000",1,
900000050301,"","S Mexikoplatz (Berlin)",,"52.437166000000","13.232060000000",1,
900000050302,"","Berlin, Potsdamer Chaussee/Lindenthaler Allee",,"52.431078000000","13.229832000000",1,
900000050303,"","Berlin, Plüschowstr.",,"52.437314000000","13.252210000000",1,
900000050304,"","Berlin, Sven-Hedin-Platz",,"52.440448000000","13.244725000000",1,
900000050351,"","Berlin, Forststr.",,"52.440114000000","13.236304000000",1,
900000050352,"","Berlin, Niklasstr.",,"52.433838000000","13.229762000000",1,
900000050355,"","S Schlachtensee (Berlin)",,"52.440117000000","13.216113000000",1,
900000050357,"","Berlin, Hartmannsweilerweg",,"52.438669000000","13.248925000000",1,
900000050381,"","Berlin, Busseallee",,"52.435728000000","13.250063000000",1,
900000050391,"","Berlin, Fischerhüttenstr.",,"52.435918000000","13.255847000000",1,
900000051101,"","Berlin, Pücklerstr.",,"52.468578000000","13.278409000000",1,
900000051151,"","Berlin, Messelstr.",,"52.473385000000","13.278549000000",1,
900000051201,"","U Thielplatz (Berlin)",,"52.451000000000","13.281651000000",1,
900000051202,"","U Breitenbachplatz (Berlin)",,"52.467342000000","13.309276000000",1,
900000051203,"","Berlin, Am Waldfriedhof",,"52.455024000000","13.266012000000",1,
900000051204,"","Berlin, Königin-Luise-Str./Clayallee",,"52.460089000000","13.274764000000",1,
900000051205,"","Berlin, Domäne Dahlem",,"52.458149000000","13.287082000000",1,
900000051206,"","Berlin, Vogelsang",,"52.459468000000","13.279778000000",1,
900000051251,"","Berlin, Löhleinstr.",,"52.453619000000","13.285478000000",1,
900000051252,"","Berlin, Im Dol",,"52.465466000000","13.288590000000",1,
900000051253,"","Berlin, Drosselweg",,"52.461209000000","13.287494000000",1,
900000051254,"","Berlin, Bachstelzenweg",,"52.458632000000","13.284006000000",1,
900000051255,"","Berlin, Alliiertenmuseum",,"52.456479000000","13.273660000000",1,
900000051256,"","Berlin, Hüttenweg",,"52.453519000000","13.272236000000",1,
900000051257,"","Berlin, Am Hegewinkel",,"52.453643000000","13.263266000000",1,
900000051258,"","Berlin, Waltraudstr.",,"52.451485000000","13.263307000000",1,
900000051259,"","Berlin, Finkenstr.",,"52.464735000000","13.277297000000",1,
900000051281,"","Berlin, Dillenburger Str.",,"52.469611000000","13.304855000000",1,
900000051301,"","U Oskar-Helene-Heim (Berlin)",,"52.450695000000","13.269948000000",1,
900000051302,"","U Podbielskiallee (Berlin)",,"52.464172000000","13.295203000000",1,
900000051303,"","U Dahlem-Dorf (Berlin)",,"52.457695000000","13.290011000000",1,
900000051307,"","Berlin, Königin-Luise-Platz/Botanischer Garten",,"52.458596000000","13.303720000000",1,
900000051309,"","Berlin, Von-Laue-Str.",,"52.443876000000","13.288827000000",1,
900000051310,"","Berlin, Clayallee 229",,"52.448419000000","13.269353000000",1,
900000051311,"","Berlin, Hittorfstr.",,"52.450827000000","13.287662000000",1,
900000051312,"","Berlin, Limonenstr.",,"52.453931000000","13.298860000000",1,
900000051313,"","Berlin, Altensteinstr./Fabeckstr.",,"52.451043000000","13.295847000000",1,
900000051351,"","Berlin, Schorlemerallee",,"52.466012000000","13.306823000000",1,
900000051352,"","Berlin, Rohlfsstr.",,"52.461563000000","13.304440000000",1,
900000051353,"","Berlin, Arnimallee",,"52.457844000000","13.299357000000",1,
900000051354,"","Berlin, Museen Dahlem",,"52.457963000000","13.295065000000",1,
900000051358,"","Berlin, Bitscher Str.",,"52.450426000000","13.277383000000",1,
900000052101,"","Berlin, Wannseebadweg",,"52.433386000000","13.188725000000",1,
900000052151,"","Berlin, Wasserwerk Beelitzhof",,"52.430034000000","13.185062000000",1,
900000052152,"","Berlin, Am Sandwerder",,"52.427266000000","13.186031000000",1,
900000052153,"","Berlin, Tillmannsweg",,"52.423729000000","13.183761000000",1,
900000052154,"","Berlin, Großes Fenster",,"52.451073000000","13.193114000000",1,
900000052155,"","Berlin, Kronprinzessinnenweg/Havelchaussee",,"52.443165000000","13.199283000000",1,
900000052156,"","Berlin, Badeweg",,"52.431997000000","13.186467000000",1,
900000052201,"","S Nikolassee (Berlin)",,"52.431638000000","13.193618000000",1,
900000052202,"","Berlin, Quantzstr.",,"52.423314000000","13.202654000000",1,
900000052203,"","Berlin, An der Rehwiese",,"52.434118000000","13.199831000000",1,
900000052204,"","Berlin, Prinz-Friedrich-Leopold-Str.",,"52.427831000000","13.195926000000",1,
900000052205,"","Berlin, Isoldestr.",,"52.419166000000","13.188915000000",1,
900000052251,"","Berlin, Nibelungenstr.",,"52.418716000000","13.180892000000",1,
900000052253,"","Berlin, Lückhoffstr.",,"52.434013000000","13.206681000000",1,
900000052271,"","Berlin, Waldhaus-Klinik",,"52.424583000000","13.205982000000",1,
900000052273,"","Berlin, Teutonenstr.",,"52.428583000000","13.193565000000",1,
900000052302,"","Berlin, Spanische Allee/Potsdamer Chaussee",,"52.429167000000","13.224309000000",1,
900000052303,"","Berlin, Schopenhauerstr.",,"52.433966000000","13.211238000000",1,
900000052304,"","Berlin, Clauertstr.",,"52.427422000000","13.229656000000",1,
900000052305,"","Berlin, Kurstr.",,"52.428107000000","13.218178000000",1,
900000052351,"","Berlin, Am Rohrgarten",,"52.426432000000","13.227203000000",1,
900000052352,"","Berlin, Wasgensteig",,"52.427414000000","13.214763000000",1,
900000052353,"","Berlin, Waldfriedhof Zehlendorf",,"52.426113000000","13.209346000000",1,
900000052355,"","Berlin, Krankenhaus Hubertus",,"52.432409000000","13.218444000000",1,
900000052356,"","Berlin, Lloyd-G.-Wells-Str.",,"52.423584000000","13.225360000000",1,
900000053101,"","Berlin, Glienicker Lake",,"52.413480000000","13.092686000000",1,
900000053102,"","Berlin, Pfaueninsel",,"52.428847000000","13.122618000000",1,
900000053151,"","Berlin, Friedenstr.",,"52.417250000000","13.138904000000",1,
900000053152,"","Berlin, Schäferberg",,"52.415526000000","13.125572000000",1,
900000053153,"","Berlin, Nikolskoer Weg",,"52.414081000000","13.109251000000",1,
900000053154,"","Berlin, Schuchardtweg",,"52.417942000000","13.144522000000",1,
900000053155,"","Berlin, Rübezahlweg",,"52.425587000000","13.132679000000",1,
900000053171,"","Berlin, Schloss Glienicke",,"52.413221000000","13.096472000000",1,
900000053202,"","Berlin, Am Kleinen Wannsee",,"52.420479000000","13.167181000000",1,
900000053204,"","Berlin, Rathaus Wannsee",,"52.418403000000","13.148899000000",1,
900000053205,"","Berlin, Wilhelmplatz",,"52.412416000000","13.141586000000",1,
900000053206,"","Berlin, Hahn-Meitner-Platz",,"52.411552000000","13.133319000000",1,
900000053250,"","Berlin, Straße zum Löwen",,"52.427419000000","13.159660000000",1,
900000053251,"","Berlin, Seglerweg",,"52.423863000000","13.161272000000",1,
900000053252,"","Berlin, Koblanckstr.",,"52.426645000000","13.161639000000",1,
900000053253,"BVG","Berlin, Liebermann-Villa",,"52.428872000000","13.163609000000",1,
900000053254,"BVG","Berlin, Am Großen Wannsee",,"52.431553000000","13.165150000000",1,
900000053255,"","Berlin, Haus der Wannsee-Konferenz",,"52.432827000000","13.163566000000",1,
900000053256,"","Berlin, Zum Heckeshorn",,"52.430158000000","13.160849000000",1,
900000053257,"","Berlin, Wernerstr.",,"52.419561000000","13.159983000000",1,
900000053258,"","Berlin, Pfaueninselchaussee/Königstr.",,"52.418991000000","13.153942000000",1,
900000053259,"","Berlin, Charlottenstr./Chausseestr.",,"52.415478000000","13.145619000000",1,
900000053260,"","Berlin, Conradstr.",,"52.420264000000","13.161618000000",1,
900000053271,"","Berlin, Am Birkenhügel",,"52.411670000000","13.136908000000",1,
900000053291,"","Berlin, Wannseebrücke",,"52.420038000000","13.175430000000",1,
900000053301,"","S Wannsee Bhf (Berlin)",,"52.421001000000","13.177955000000",1,
900000053303,"","Berlin, Steinstücken",,"52.389277000000","13.130074000000",1,
900000053304,"","Berlin, Kätchenweg",,"52.397631000000","13.143570000000",1,
900000053352,"","Berlin, Hubertusbrücke",,"52.405162000000","13.143588000000",1,
900000053353,"","Berlin, Neue Kreisstr.",,"52.399653000000","13.141727000000",1,
900000053354,"","Berlin, Königsweg",,"52.396238000000","13.139861000000",1,
900000053355,"","Berlin, Stölpchensee",,"52.409385000000","13.143697000000",1,
900000053371,"","Berlin, Stahnsdorfer Brücke",,"52.391715000000","13.131665000000",1,
900000054101,"","U Rathaus Schöneberg (Berlin)",,"52.483332000000","13.341989000000",1,
900000054102,"","U Kleistpark (Berlin)",,"52.490845000000","13.360917000000",1,
900000054103,"","U Eisenacher Str. (Berlin)",,"52.489529000000","13.350276000000",1,
900000054104,"","S Schöneberg (Berlin)",,"52.479811000000","13.352848000000",1,
900000054105,"","S+U Innsbrucker Platz (Berlin)",,"52.478100000000","13.342875000000",1,
900000054106,"","Berlin, Rathaus Schöneberg",,"52.485148000000","13.345077000000",1,
900000054107,"","Berlin, Dominicusstr./Hauptstr.",,"52.481794000000","13.348375000000",1,
900000054109,"","Berlin, Kaiser-Wilhelm-Platz",,"52.486942000000","13.357160000000",1,
900000054151,"","Berlin, Albertstr.",,"52.484510000000","13.352978000000",1,
900000054153,"","Berlin, Goebenstr.",,"52.494330000000","13.361054000000",1,
900000054173,"","Berlin, Kärntener Str.",,"52.479863000000","13.345946000000",1,
900000054192,"","Berlin, Grunewaldstr.",,"52.489085000000","13.345006000000",1,
900000055101,"","U Viktoria-Luise-Platz (Berlin)",,"52.496169000000","13.343264000000",1,
900000055102,"","U Bayerischer Platz (Berlin)",,"52.488654000000","13.340237000000",1,
900000055105,"","Berlin, Hohenstaufenstr.",,"52.494429000000","13.346156000000",1,
900000055106,"","Berlin, Eisenacher Str.",,"52.494583000000","13.349179000000",1,
900000055107,"","Berlin, Münchener Str.",,"52.494289000000","13.342617000000",1,
900000055108,"","Berlin, Bamberger Str.",,"52.494717000000","13.336593000000",1,
900000055151,"","Berlin, Barbarossastr.",,"52.491861000000","13.345164000000",1,
900000055152,"","Berlin, Motzstr.",,"52.497482000000","13.346396000000",1,
900000056101,"","U Wittenbergplatz (Berlin)",,"52.502109000000","13.342561000000",1,
900000056102,"","U Nollendorfplatz (Berlin)",,"52.499644000000","13.353825000000",1,
900000056104,"","U Bülowstr. (Berlin)",,"52.497657000000","13.362452000000",1,
900000056105,"","Berlin, An der Urania",,"52.501072000000","13.346800000000",1,
900000056152,"","Berlin, Winterfeldtplatz",,"52.494607000000","13.355703000000",1,
900000057102,"","S+U Yorckstr. S1 U7 (Berlin)",,"52.492985000000","13.369317000000",1,
900000057106,"","Berlin, Torgauer Str.",,"52.479445000000","13.361257000000",1,
900000057107,"","Berlin, Dennewitzplatz",,"52.495906000000","13.366227000000",1,
900000057151,"","Berlin, Kesselsdorfstr.",,"52.485081000000","13.368202000000",1,
900000057153,"","Berlin, Gustav-Müller-Platz",,"52.483550000000","13.361442000000",1,
900000057154,"","Berlin, Leuthener Str.",,"52.481401000000","13.361508000000",1,
900000057155,"","Berlin, Katzbachstr.",,"52.491815000000","13.378026000000",1,
900000057171,"","Berlin, Mansteinstr.",,"52.493343000000","13.367134000000",1,
900000058101,"","S Südkreuz Bhf (Berlin)",,"52.476509000000","13.364890000000",1,
900000058102,"","S Priesterweg (Berlin)",,"52.459239000000","13.356028000000",1,
900000058103,"","S+U Yorckstr. S2 S25 U7 (Berlin)",,"52.492631000000","13.371176000000",1,
900000058104,"","Berlin, Schöneberger Str.",,"52.469721000000","13.372067000000",1,
900000058105,"","Berlin, Lindenhof",,"52.459947000000","13.361626000000",1,
900000058106,"","Berlin, Röblingstr./Arnulfstr.",,"52.456575000000","13.359447000000",1,
900000058107,"","Berlin, Alboinplatz",,"52.461255000000","13.369803000000",1,
900000058151,"","Berlin, Alboinstr./Arnulfstr.",,"52.455745000000","13.369867000000",1,
900000058152,"","Berlin, Domnauer Str.",,"52.455861000000","13.364442000000",1,
900000058153,"","Berlin, Friedhof Röblingstr.",,"52.453493000000","13.360956000000",1,
900000058155,"","Berlin, Eresburgstr.",,"52.466803000000","13.370269000000",1,
900000058156,"","Berlin, Egelingzeile",,"52.463571000000","13.369978000000",1,
900000058157,"","Berlin, Kolonnenbrücke",,"52.485052000000","13.372971000000",1,
900000058171,"","Berlin, Bessemerstr.",,"52.459729000000","13.366504000000",1,
900000058172,"","Berlin, Suttnerstr.",,"52.459800000000","13.364225000000",1,
900000059101,"","Berlin, Sachsendamm/Gotenstr.",,"52.475618000000","13.359578000000",1,
900000059151,"","Berlin, Sportzentrum Schöneberg",,"52.477324000000","13.356525000000",1,
900000060101,"","S Friedenau (Berlin)",,"52.470932000000","13.341759000000",1,
900000060102,"","Berlin, Friedenauer Brücke",,"52.467393000000","13.336795000000",1,
900000060103,"","Berlin, Grazer Platz/Beckerstr.",,"52.466768000000","13.344428000000",1,
900000060104,"","Berlin, Insulaner",,"52.459082000000","13.348461000000",1,
900000060105,"","Berlin, Göttinger Str.",,"52.460329000000","13.346306000000",1,
900000060106,"","Berlin, Grazer Platz",,"52.466939000000","13.347494000000",1,
900000060107,"","Berlin, Ceciliengärten",,"52.475024000000","13.343076000000",1,
900000060151,"","Berlin, Brüggemannstr.",,"52.463482000000","13.348080000000",1,
900000060152,"","Berlin, Altmarkstr.",,"52.458809000000","13.342435000000",1,
900000060153,"","Berlin, Rubensstr./S Friedenau",,"52.469785000000","13.343873000000",1,
900000060154,"","Berlin, Auguste-Viktoria-Klinikum",,"52.463206000000","13.344687000000",1,
900000060155,"","Berlin, Planetarium",,"52.457487000000","13.348839000000",1,
900000061101,"","U Walther-Schreiber-Platz (Berlin)",,"52.464998000000","13.328409000000",1,
900000061102,"","U Friedrich-Wilhelm-Platz (Berlin)",,"52.471439000000","13.328676000000",1,
900000061104,"","Berlin, Kaisereiche",,"52.468927000000","13.332339000000",1,
900000061105,"","Berlin, Rathaus Friedenau",,"52.472201000000","13.336028000000",1,
900000061153,"","Berlin, Hähnelstr.",,"52.475533000000","13.340206000000",1,
900000061154,"","Berlin, Schillerplatz",,"52.471554000000","13.324088000000",1,
900000062101,"","Berlin, Gritznerstr.",,"52.464323000000","13.316499000000",1,
900000062151,"","Berlin, Paulsenstr.",,"52.465258000000","13.314055000000",1,
900000062152,"","Berlin, Lepsiusstr.",,"52.463181000000","13.319746000000",1,
900000062202,"","S+U Rathaus Steglitz (Berlin)",,"52.456598000000","13.321756000000",1,
900000062203,"","U Schloßstr. (Berlin)",,"52.461476000000","13.325139000000",1,
900000062206,"","Berlin, Schmidt-Ott-Str.",,"52.459887000000","13.308878000000",1,
900000062251,"","Berlin, Grunewaldstr./Lepsiusstr.",,"52.458788000000","13.315613000000",1,
900000062252,"","Berlin, Kieler Str.",,"52.458729000000","13.322497000000",1,
900000062282,"","S+U Rathaus Steglitz/Kreisel (Berlin)",,"52.455889000000","13.320852000000",1,
900000063101,"","S Feuerbachstr. (Berlin)",,"52.463578000000","13.332412000000",1,
900000063103,"","Berlin, Knausplatz",,"52.464457000000","13.338943000000",1,
900000063104,"","Berlin, Bismarckstr./Bergstr.",,"52.458550000000","13.339175000000",1,
900000063151,"","Berlin, Lauenburger Platz",,"52.461793000000","13.339318000000",1,
900000063152,"","Berlin, Selerweg",,"52.454473000000","13.338875000000",1,
900000063154,"","Berlin, Cranachstr.",,"52.462728000000","13.343246000000",1,
